;href;lat;long;name;name_reg;norm_name;norm_reg;oktmo;people;phone_code;post_ind;reg;square;timezone
0;https://ru.wikipedia.org/wiki/%D0%91%D0%B0%D1%80%D0%BD%D0%B0%D1%83%D0%BB;53.34722222;83.77833333;Барнаул;Алтайский край;Барнаул;Алтайский;1701000001;633301;73852;;1.0;0.0;UTC+7
1;https://ru.wikipedia.org/wiki/%D0%91%D0%B8%D0%B9%D1%81%D0%BA;52.51666667;85.16666667;Бийск;Алтайский край;Бийск;Алтайский;1705000001;203108;73854;659300;1.0;0.0;UTC+7
2;https://ru.wikipedia.org/wiki/%D0%A0%D1%83%D0%B1%D1%86%D0%BE%D0%B2%D1%81%D0%BA;51.52722222;81.21861111;Рубцовск;Алтайский край;Рубцовск;Алтайский;1716000001;145333;738557;658200;1.0;0.0;UTC+7
3;https://ru.wikipedia.org/wiki/%D0%9D%D0%BE%D0%B2%D0%BE%D0%B0%D0%BB%D1%82%D0%B0%D0%B9%D1%81%D0%BA;53.4;83.93333333;Новоалтайск;Алтайский край;Новоалтайск;Алтайский;1713000001;73712;738532;658ХХХ;1.0;0.0;UTC+7
4;https://ru.wikipedia.org/wiki/%D0%97%D0%B0%D1%80%D0%B8%D0%BD%D1%81%D0%BA;53.7;84.91666667;Заринск;Алтайский край;Заринск;Алтайский;1706000001;46830;738595;659100;1.0;0.0;UTC+7
5;https://ru.wikipedia.org/wiki/%D0%9A%D0%B0%D0%BC%D0%B5%D0%BD%D1%8C-%D0%BD%D0%B0-%D0%9E%D0%B1%D0%B8;53.79194444;81.34861111;Камень-на-Оби;Алтайский край;Камень-на-Оби;Алтайский;1616101001;41315;738584;658700;1.0;0.0;UTC+7
6;https://ru.wikipedia.org/wiki/%D0%A1%D0%BB%D0%B0%D0%B2%D0%B3%D0%BE%D1%80%D0%BE%D0%B4_(%D0%A0%D0%BE%D1%81%D1%81%D0%B8%D1%8F);53.0;78.65;Славгород;Алтайский край;Славгород;Алтайский;1719000001;30186;738568;658820;1.0;0.0;UTC+7
7;https://ru.wikipedia.org/wiki/%D0%90%D0%BB%D0%B5%D0%B9%D1%81%D0%BA;52.5;82.78333333;Алейск;Алтайский край;Алейск;Алтайский;1703000001;28735;738553;;1.0;0.0;UTC+7
8;https://ru.wikipedia.org/wiki/%D0%AE%D0%B6%D0%BD%D1%8B%D0%B9_(%D0%B3%D0%BE%D1%80%D0%BE%D0%B4%D1%81%D0%BA%D0%BE%D0%B9_%D0%BE%D0%BA%D1%80%D1%83%D0%B3_%D0%B3%D0%BE%D1%80%D0%BE%D0%B4_%D0%91%D0%B0%D1%80%D0%BD%D0%B0%D1%83%D0%BB);53.25;83.68333333;Южный;Алтайский край;Южный;Алтайский;1701000056;20028;73852;656906;1.0;0.0;UTC+7
9;https://ru.wikipedia.org/wiki/%D0%A2%D0%B0%D0%BB%D1%8C%D0%BC%D0%B5%D0%BD%D0%BA%D0%B0;53.81666667;83.56416667;Тальменка;Алтайский край;Тальменка;Алтайский;1647151051;19157;;658030;1.0;0.0;UTC+7
10;https://ru.wikipedia.org/wiki/%D0%AF%D1%80%D0%BE%D0%B2%D0%BE%D0%B5;52.93333333;78.58333333;Яровое;Алтайский край;Яровое;Алтайский;1730000001;18159;738568;658837 — 658839;1.0;0.0;UTC+7
11;https://ru.wikipedia.org/wiki/%D0%91%D0%B5%D0%BB%D0%BE%D0%BA%D1%83%D1%80%D0%B8%D1%85%D0%B0;52.0;84.98333333;Белокуриха;Алтайский край;Белокуриха;Алтайский;1704000001;15264;738577;659900;1.0;0.0;UTC+7
12;https://ru.wikipedia.org/wiki/%D0%9A%D1%83%D0%BB%D1%83%D0%BD%D0%B4%D0%B0_(%D1%81%D0%B5%D0%BB%D0%BE);52.56666667;78.94722222;Кулунда;Алтайский край;Кулунда;Алтайский;1622460101;14498;738566;658920;1.0;0.0;UTC+7
13;https://ru.wikipedia.org/wiki/%D0%9F%D0%B0%D0%B2%D0%BB%D0%BE%D0%B2%D1%81%D0%BA_(%D0%90%D0%BB%D1%82%D0%B0%D0%B9%D1%81%D0%BA%D0%B8%D0%B9_%D0%BA%D1%80%D0%B0%D0%B9);53.32527778;82.97666667;Павловск;Алтайский край;Павловск;Алтайский;1630460101;14445;738511;;1.0;0.0;UTC+7
14;https://ru.wikipedia.org/wiki/%D0%90%D0%BB%D1%82%D0%B0%D0%B9%D1%81%D0%BA%D0%BE%D0%B5_(%D0%90%D0%BB%D1%82%D0%B0%D0%B9%D1%81%D0%BA%D0%B8%D0%B9_%D1%80%D0%B0%D0%B9%D0%BE%D0%BD);51.93333333;85.31666667;Алтайское;Алтайский край;Алтайское;Алтайский;1602407101;14235;738537;;1.0;0.0;UTC+7
15;https://ru.wikipedia.org/wiki/%D0%A8%D0%B8%D0%BF%D1%83%D0%BD%D0%BE%D0%B2%D0%BE_(%D0%A8%D0%B8%D0%BF%D1%83%D0%BD%D0%BE%D0%B2%D1%81%D0%BA%D0%B8%D0%B9_%D1%81%D0%B5%D0%BB%D1%8C%D1%81%D0%BE%D0%B2%D0%B5%D1%82);52.21666667;82.26666667;Шипуново;Алтайский край;Шипуново;Алтайский;1659495101;13462;738550;658390;1.0;0.0;UTC+7
16;https://ru.wikipedia.org/wiki/%D0%93%D0%BE%D1%80%D0%BD%D1%8F%D0%BA_(%D0%90%D0%BB%D1%82%D0%B0%D0%B9%D1%81%D0%BA%D0%B8%D0%B9_%D0%BA%D1%80%D0%B0%D0%B9);51.0;81.46666667;Горняк;Алтайский край;Горняк;Алтайский;1625101001;12972;738586;658420;1.0;0.0;UTC+7
17;https://ru.wikipedia.org/wiki/%D0%9F%D0%BE%D1%81%D0%BF%D0%B5%D0%BB%D0%B8%D1%85%D0%B0_(%D0%90%D0%BB%D1%82%D0%B0%D0%B9%D1%81%D0%BA%D0%B8%D0%B9_%D0%BA%D1%80%D0%B0%D0%B9);51.98333333;81.83333333;Поспелиха;Алтайский край;Поспелиха;Алтайский;1634495101;11915;;659700–659702;1.0;0.0;UTC+7
18;https://ru.wikipedia.org/wiki/%D0%A1%D0%B8%D0%B1%D0%B8%D1%80%D1%81%D0%BA%D0%B8%D0%B9_(%D0%90%D0%BB%D1%82%D0%B0%D0%B9%D1%81%D0%BA%D0%B8%D0%B9_%D0%BA%D1%80%D0%B0%D0%B9);53.55694444;83.83833333;Сибирский;Алтайский край;Сибирский;Алтайский;1755000051;11896;738532;658076;1.0;0.0;UTC+7
19;https://ru.wikipedia.org/wiki/%D0%91%D0%BB%D0%B0%D0%B3%D0%BE%D0%B2%D0%B5%D1%89%D0%B5%D0%BD%D0%BA%D0%B0;52.83333333;79.86666667;Благовещенка;Алтайский край;Благовещенка;Алтайский;1605151051;11577;738564;658670;1.0;0.0;UTC+7
20;https://ru.wikipedia.org/wiki/%D0%9C%D0%B8%D1%85%D0%B0%D0%B9%D0%BB%D0%BE%D0%B2%D1%81%D0%BA%D0%BE%D0%B5_(%D0%90%D0%BB%D1%82%D0%B0%D0%B9%D1%81%D0%BA%D0%B8%D0%B9_%D0%BA%D1%80%D0%B0%D0%B9);51.82388889;79.71722222;Михайловское;Алтайский край;Михайловское;Алтайский;1627416101;10756;738570;;1.0;0.0;UTC+7
21;https://ru.wikipedia.org/wiki/%D0%97%D0%BC%D0%B5%D0%B8%D0%BD%D0%BE%D0%B3%D0%BE%D1%80%D1%81%D0%BA;51.16666667;82.16666667;Змеиногорск;Алтайский край;Змеиногорск;Алтайский;1614101001;10575;738587;658480;1.0;0.0;UTC+7
22;https://ru.wikipedia.org/wiki/%D0%92%D0%BE%D0%BB%D1%87%D0%B8%D1%85%D0%B0_(%D0%90%D0%BB%D1%82%D0%B0%D0%B9%D1%81%D0%BA%D0%B8%D0%B9_%D0%BA%D1%80%D0%B0%D0%B9);52.01666667;80.36666667;Волчиха;Алтайский край;Волчиха;Алтайский;1608421101;10011;738565;658930–658933;1.0;0.0;UTC+7
23;https://ru.wikipedia.org/wiki/%D0%9A%D1%80%D0%B0%D1%81%D0%BD%D0%BE%D0%B4%D0%B0%D1%80;45.03333333;38.98333333;Краснодар;Краснодарский край;Краснодар;Краснодарский;3701000001;881476;7861;;3.0;0.0;
24;https://ru.wikipedia.org/wiki/%D0%A1%D0%BE%D1%87%D0%B8;43.58527778;39.72027778;Сочи;Краснодарский край;Сочи;Краснодарский;3726000001;411524;7862;;3.0;0.0;UTC+3
25;https://ru.wikipedia.org/wiki/%D0%9D%D0%BE%D0%B2%D0%BE%D1%80%D0%BE%D1%81%D1%81%D0%B8%D0%B9%D1%81%D0%BA;44.71666667;37.76666667;Новороссийск;Краснодарский край;Новороссийск;Краснодарский;3720000001;270774;78617;;3.0;0.0;UTC+3
26;https://ru.wikipedia.org/wiki/%D0%90%D1%80%D0%BC%D0%B0%D0%B2%D0%B8%D1%80_(%D0%A0%D0%BE%D1%81%D1%81%D0%B8%D1%8F);45.0;41.11666667;Армавир;Краснодарский край;Армавир;Краснодарский;3705000001;190871;786137;352900;3.0;0.0;UTC+3
27;https://ru.wikipedia.org/wiki/%D0%95%D0%B9%D1%81%D0%BA;46.71055556;38.27777778;Ейск;Краснодарский край;Ейск;Краснодарский;3616101001;84259;786132;;3.0;0.0;UTC+3
28;https://ru.wikipedia.org/wiki/%D0%9A%D1%80%D0%BE%D0%BF%D0%BE%D1%82%D0%BA%D0%B8%D0%BD_(%D0%B3%D0%BE%D1%80%D0%BE%D0%B4);45.43333333;40.56666667;Кропоткин;Краснодарский край;Кропоткин;Краснодарский;3618101001;79152;786138;352380–352396;3.0;0.0;UTC+3
29;https://ru.wikipedia.org/wiki/%D0%90%D0%BD%D0%B0%D0%BF%D0%B0;44.89444444;37.31666667;Анапа;Краснодарский край;Анапа;Краснодарский;3703000001;75375;786133;;3.0;0.0;UTC+3
30;https://ru.wikipedia.org/wiki/%D0%93%D0%B5%D0%BB%D0%B5%D0%BD%D0%B4%D0%B6%D0%B8%D0%BA;44.56083333;38.07666667;Геленджик;Краснодарский край;Геленджик;Краснодарский;3708000001;74887;786141;;3.0;0.0;UTC+3
31;https://ru.wikipedia.org/wiki/%D0%A1%D0%BB%D0%B0%D0%B2%D1%8F%D0%BD%D1%81%D0%BA-%D0%BD%D0%B0-%D0%9A%D1%83%D0%B1%D0%B0%D0%BD%D0%B8;45.25861111;38.12472222;Славянск-на-Кубани;Краснодарский край;Славянск-на-Кубани;Краснодарский;3645101001;66014;786146;353560;3.0;0.0;UTC+3
32;https://ru.wikipedia.org/wiki/%D0%A2%D1%83%D0%B0%D0%BF%D1%81%D0%B5;44.1;39.08333333;Туапсе;Краснодарский край;Туапсе;Краснодарский;3655101001;62841;786167;352800;3.0;0.0;UTC+3
33;https://ru.wikipedia.org/wiki/%D0%9B%D0%B0%D0%B1%D0%B8%D0%BD%D1%81%D0%BA;44.63333333;40.73333333;Лабинск;Краснодарский край;Лабинск;Краснодарский;3630101001;60889;786169;;3.0;0.0;UTC+3
34;https://ru.wikipedia.org/wiki/%D0%A2%D0%B8%D1%85%D0%BE%D1%80%D0%B5%D1%86%D0%BA;45.85;40.11666667;Тихорецк;Краснодарский край;Тихорецк;Краснодарский;3654101001;58982;786196;;3.0;0.0;UTC+3
35;https://ru.wikipedia.org/wiki/%D0%9A%D1%80%D1%8B%D0%BC%D1%81%D0%BA;44.93333333;38.0;Крымск;Краснодарский край;Крымск;Краснодарский;3625101001;57254;786131;353380 — 353389;3.0;0.0;UTC+3
36;https://ru.wikipedia.org/wiki/%D0%A2%D0%B8%D0%BC%D0%B0%D1%88%D1%91%D0%B2%D1%81%D0%BA;45.61666667;38.93333333;Тимашёвск;Краснодарский край;Тимашевск;Краснодарский;3653101001;52527;786130;3527хх;3.0;0.0;UTC+3
37;https://ru.wikipedia.org/wiki/%D0%91%D0%B5%D0%BB%D0%BE%D1%80%D0%B5%D1%87%D0%B5%D0%BD%D1%81%D0%BA;44.76666667;39.86666667;Белореченск;Краснодарский край;Белореченск;Краснодарский;3608101001;52264;786155;352630 — 352636;3.0;0.0;UTC+3
38;https://ru.wikipedia.org/wiki/%D0%9A%D1%83%D1%80%D0%B3%D0%B0%D0%BD%D0%B8%D0%BD%D1%81%D0%BA;44.88333333;40.6;Курганинск;Краснодарский край;Курганинск;Краснодарский;3627101001;48964;786147;;3.0;0.0;UTC+3
39;https://ru.wikipedia.org/wiki/%D0%9A%D0%B0%D0%BD%D0%B5%D0%B2%D1%81%D0%BA%D0%B0%D1%8F;46.08333333;38.95;Каневская;Краснодарский край;Каневская;Краснодарский;3620402101;44386;786164;;3.0;0.0;UTC+3
40;https://ru.wikipedia.org/wiki/%D0%9A%D0%BE%D1%80%D0%B5%D0%BD%D0%BE%D0%B2%D1%81%D0%BA;45.46666667;39.45;Кореновск;Краснодарский край;Кореновск;Краснодарский;3621101001;41823;786142;;3.0;0.0;UTC+3
41;https://ru.wikipedia.org/wiki/%D0%A3%D1%81%D1%82%D1%8C-%D0%9B%D0%B0%D0%B1%D0%B8%D0%BD%D1%81%D0%BA;45.21527778;39.68944444;Усть-Лабинск;Краснодарский край;Усть-Лабинск;Краснодарский;3657101001;41348;786135;352330;3.0;0.0;UTC+3
42;https://ru.wikipedia.org/wiki/%D0%90%D0%BF%D1%88%D0%B5%D1%80%D0%BE%D0%BD%D1%81%D0%BA;44.46083333;39.74055556;Апшеронск;Краснодарский край;Апшеронск;Краснодарский;3605101001;40239;786152;352690;3.0;0.0;UTC+3
43;https://ru.wikipedia.org/wiki/%D0%A2%D0%B5%D0%BC%D1%80%D1%8E%D0%BA;45.26666667;37.38333333;Темрюк;Краснодарский край;Темрюк;Краснодарский;3651101001;40108;786148;;3.0;0.0;UTC+3
44;https://ru.wikipedia.org/wiki/%D0%90%D0%B1%D0%B8%D0%BD%D1%81%D0%BA;44.86666667;38.16666667;Абинск;Краснодарский край;Абинск;Краснодарский;3601101001;37749;786150;;3.0;0.0;UTC+3
45;https://ru.wikipedia.org/wiki/%D0%9B%D0%B5%D0%BD%D0%B8%D0%BD%D0%B3%D1%80%D0%B0%D0%B4%D1%81%D0%BA%D0%B0%D1%8F_(%D1%81%D1%82%D0%B0%D0%BD%D0%B8%D1%86%D0%B0);46.32111111;39.39777778;Ленинградская;Краснодарский край;Ленинградская;Краснодарский;3632410101;36940;786145;;3.0;0.0;UTC+3
46;https://ru.wikipedia.org/wiki/%D0%93%D0%BE%D1%80%D1%8F%D1%87%D0%B8%D0%B9_%D0%9A%D0%BB%D1%8E%D1%87;44.63333333;39.13333333;Горячий Ключ;Краснодарский край;Горячий Ключ;Краснодарский;3709000001;36807;786159;353290;3.0;0.0;UTC+3
47;https://ru.wikipedia.org/wiki/%D0%9D%D0%BE%D0%B2%D0%BE%D0%BA%D1%83%D0%B1%D0%B0%D0%BD%D1%81%D0%BA;45.1;41.05;Новокубанск;Краснодарский край;Новокубанск;Краснодарский;3634101001;35437;786195;;3.0;0.0;UTC+3
48;https://ru.wikipedia.org/wiki/%D0%94%D0%B8%D0%BD%D1%81%D0%BA%D0%B0%D1%8F;45.21666667;39.22472222;Динская;Краснодарский край;Динская;Краснодарский;3614404101;34848;786162;;3.0;0.0;UTC+3
49;https://ru.wikipedia.org/wiki/%D0%93%D1%83%D0%BB%D1%8C%D0%BA%D0%B5%D0%B2%D0%B8%D1%87%D0%B8;45.36027778;40.69444444;Гулькевичи;Краснодарский край;Гулькевичи;Краснодарский;3613101001;34360;786160;352190;3.0;0.0;UTC+3
50;https://ru.wikipedia.org/wiki/%D0%9F%D1%80%D0%B8%D0%BC%D0%BE%D1%80%D1%81%D0%BA%D0%BE-%D0%90%D1%85%D1%82%D0%B0%D1%80%D1%81%D0%BA;46.05;38.18333333;Приморско-Ахтарск;Краснодарский край;Приморско-Ахтарск;Краснодарский;3641101001;31925;786143;353860–353866;3.0;0.0;UTC+3
51;https://ru.wikipedia.org/wiki/%D0%9F%D0%B0%D0%B2%D0%BB%D0%BE%D0%B2%D1%81%D0%BA%D0%B0%D1%8F_(%D0%9A%D1%80%D0%B0%D1%81%D0%BD%D0%BE%D0%B4%D0%B0%D1%80%D1%81%D0%BA%D0%B8%D0%B9_%D0%BA%D1%80%D0%B0%D0%B9);46.13333333;39.76666667;Павловская;Краснодарский край;Павловская;Краснодарский;3639428101;31327;786191;;3.0;0.0;UTC+3
52;https://ru.wikipedia.org/wiki/%D0%A1%D1%82%D0%B0%D1%80%D0%BE%D0%BC%D0%B8%D0%BD%D1%81%D0%BA%D0%B0%D1%8F;46.53333333;39.05;Староминская;Краснодарский край;Староминская;Краснодарский;3647413101;29809;786153;;3.0;0.0;UTC+3
53;https://ru.wikipedia.org/wiki/%D0%9A%D1%83%D1%89%D1%91%D0%B2%D1%81%D0%BA%D0%B0%D1%8F;46.55;39.66666667;Кущёвская;Краснодарский край;Кущевская;Краснодарский;3628416101;28362;786168;;3.0;0.0;UTC+3
54;https://ru.wikipedia.org/wiki/%D0%9F%D0%BE%D0%BB%D1%82%D0%B0%D0%B2%D1%81%D0%BA%D0%B0%D1%8F;45.36666667;38.21166667;Полтавская;Краснодарский край;Полтавская;Краснодарский;3623410101;26626;786165;;3.0;0.0;UTC+3
55;https://ru.wikipedia.org/wiki/%D0%A2%D0%B1%D0%B8%D0%BB%D0%B8%D1%81%D1%81%D0%BA%D0%B0%D1%8F;45.36666667;40.2;Тбилисская;Краснодарский край;Тбилисская;Краснодарский;3649419101;25317;786158;352360;3.0;0.0;UTC+3
56;https://ru.wikipedia.org/wiki/%D0%98%D0%BB%D1%8C%D1%81%D0%BA%D0%B8%D0%B9;44.85444444;38.57027778;Ильский;Краснодарский край;Ильский;Краснодарский;3643155051;25306;786166;;3.0;0.0;UTC+3
57;https://ru.wikipedia.org/wiki/%D0%9C%D0%BE%D1%81%D1%82%D0%BE%D0%B2%D1%81%D0%BA%D0%BE%D0%B9;44.41361111;40.78972222;Мостовской;Краснодарский край;Мостовской;Краснодарский;3633151051;25131;786192;352570-352574;3.0;0.0;UTC+3
58;https://ru.wikipedia.org/wiki/%D0%A1%D0%B5%D0%B2%D0%B5%D1%80%D1%81%D0%BA%D0%B0%D1%8F;44.85;38.66666667;Северская;Краснодарский край;Северская;Краснодарский;3643413101;24867;786166;353240;3.0;0.0;UTC+3
59;https://ru.wikipedia.org/wiki/%D0%95%D0%BB%D0%B8%D0%B7%D0%B0%D0%B2%D0%B5%D1%82%D0%B8%D0%BD%D1%81%D0%BA%D0%B0%D1%8F_(%D0%9A%D1%80%D0%B0%D1%81%D0%BD%D0%BE%D0%B4%D0%B0%D1%80%D1%81%D0%BA%D0%B8%D0%B9_%D0%BA%D1%80%D0%B0%D0%B9);45.04805556;38.79277778;Елизаветинская;Краснодарский край;Елизаветинская;Краснодарский;3701000131;24755;;;3.0;0.0;UTC+3
60;https://ru.wikipedia.org/wiki/%D0%9D%D0%BE%D0%B2%D0%BE%D1%82%D0%B8%D1%82%D0%B0%D1%80%D0%BE%D0%B2%D1%81%D0%BA%D0%B0%D1%8F;45.23583333;38.97111111;Новотитаровская;Краснодарский край;Новотитаровская;Краснодарский;3614416101;24754;786162;;3.0;0.0;UTC+3
61;https://ru.wikipedia.org/wiki/%D0%9E%D1%82%D1%80%D0%B0%D0%B4%D0%BD%D0%B0%D1%8F_(%D0%9E%D1%82%D1%80%D0%B0%D0%B4%D0%BD%D0%B5%D0%BD%D1%81%D0%BA%D0%B8%D0%B9_%D1%80%D0%B0%D0%B9%D0%BE%D0%BD);44.39611111;41.525;Отрадная;Краснодарский край;Отрадная;Краснодарский;3637413101;23204;786144;;3.0;0.0;UTC+3
62;https://ru.wikipedia.org/wiki/%D0%A5%D0%B0%D0%B4%D1%8B%D0%B6%D0%B5%D0%BD%D1%81%D0%BA;44.42388889;39.53722222;Хадыженск;Краснодарский край;Хадыженск;Краснодарский;3605109001;22706;786152;352680–352681;3.0;0.0;UTC+3
63;https://ru.wikipedia.org/wiki/%D0%91%D1%80%D1%8E%D1%85%D0%BE%D0%B2%D0%B5%D1%86%D0%BA%D0%B0%D1%8F;45.80083333;39.00416667;Брюховецкая;Краснодарский край;Брюховецкая;Краснодарский;3610407101;22139;786156;;3.0;0.0;UTC+3
64;https://ru.wikipedia.org/wiki/%D0%90%D1%85%D1%82%D1%8B%D1%80%D1%81%D0%BA%D0%B8%D0%B9;44.83333333;38.28333333;Ахтырский;Краснодарский край;Ахтырский;Краснодарский;3601153051;20983;786150;;3.0;0.0;UTC+3
65;https://ru.wikipedia.org/wiki/%D0%9A%D1%80%D0%B0%D1%81%D0%BD%D0%BE%D1%8F%D1%80%D1%81%D0%BA;56.01194444;92.87138889;Красноярск;Красноярский край;Красноярск;Красноярский;4701000001;1083000;7391;660ххх;4.0;0.0;UTC+7
66;https://ru.wikipedia.org/wiki/%D0%9D%D0%BE%D1%80%D0%B8%D0%BB%D1%8C%D1%81%D0%BA;69.33333333;88.21666667;Норильск;Красноярский край;Норильск;Красноярский;4729000001;177428;73919;;4.0;0.0;UTC+7
67;https://ru.wikipedia.org/wiki/%D0%90%D1%87%D0%B8%D0%BD%D1%81%D0%BA;56.26666667;90.5;Ачинск;Красноярский край;Ачинск;Красноярский;4703000001;105364;739151;662150—662165;4.0;0.0;UTC+7
68;https://ru.wikipedia.org/wiki/%D0%9A%D0%B0%D0%BD%D1%81%D0%BA;56.2;95.7;Канск;Красноярский край;Канск;Красноярский;4720000001;90231;739161;6636**;4.0;0.0;UTC+7
69;https://ru.wikipedia.org/wiki/%D0%96%D0%B5%D0%BB%D0%B5%D0%B7%D0%BD%D0%BE%D0%B3%D0%BE%D1%80%D1%81%D0%BA_(%D0%9A%D1%80%D0%B0%D1%81%D0%BD%D0%BE%D1%8F%D1%80%D1%81%D0%BA%D0%B8%D0%B9_%D0%BA%D1%80%D0%B0%D0%B9);56.25;93.53333333;Железногорск;Красноярский край;Железногорск;Красноярский;4735000001;84543;73919;662970;4.0;0.0;UTC+7
70;https://ru.wikipedia.org/wiki/%D0%9C%D0%B8%D0%BD%D1%83%D1%81%D0%B8%D0%BD%D1%81%D0%BA;53.7;91.68333333;Минусинск;Красноярский край;Минусинск;Красноярский;4723000001;68309;739132;662600;4.0;0.0;UTC+7
71;https://ru.wikipedia.org/wiki/%D0%97%D0%B5%D0%BB%D0%B5%D0%BD%D0%BE%D0%B3%D0%BE%D1%80%D1%81%D0%BA_(%D0%9A%D1%80%D0%B0%D1%81%D0%BD%D0%BE%D1%8F%D1%80%D1%81%D0%BA%D0%B8%D0%B9_%D0%BA%D1%80%D0%B0%D0%B9);56.1;94.58333333;Зеленогорск;Красноярский край;Зеленогорск;Красноярский;4737000001;62466;739169;663690;4.0;0.0;UTC+7
72;https://ru.wikipedia.org/wiki/%D0%9B%D0%B5%D1%81%D0%BE%D1%81%D0%B8%D0%B1%D0%B8%D1%80%D1%81%D0%BA;58.23333333;92.48333333;Лесосибирск;Красноярский край;Лесосибирск;Красноярский;4722000001;59844;739145;;4.0;0.0;UTC+7
73;https://ru.wikipedia.org/wiki/%D0%9D%D0%B0%D0%B7%D0%B0%D1%80%D0%BE%D0%B2%D0%BE_(%D0%9A%D1%80%D0%B0%D1%81%D0%BD%D0%BE%D1%8F%D1%80%D1%81%D0%BA%D0%B8%D0%B9_%D0%BA%D1%80%D0%B0%D0%B9);56.00638889;90.39138889;Назарово;Красноярский край;Назарово;Красноярский;4726000001;50397;+7 39155;662200;4.0;0.0;UTC+7
74;https://ru.wikipedia.org/wiki/%D0%A1%D0%BE%D1%81%D0%BD%D0%BE%D0%B2%D0%BE%D0%B1%D0%BE%D1%80%D1%81%D0%BA_(%D0%9A%D1%80%D0%B0%D1%81%D0%BD%D0%BE%D1%8F%D1%80%D1%81%D0%BA%D0%B8%D0%B9_%D0%BA%D1%80%D0%B0%D0%B9);56.13333333;93.36666667;Сосновоборск;Красноярский край;Сосновоборск;Красноярский;4733000001;39375;739131;662500, 662501;4.0;0.0;UTC+7
75;https://ru.wikipedia.org/wiki/%D0%A8%D0%B0%D1%80%D1%8B%D0%BF%D0%BE%D0%B2%D0%BE;55.525;89.2;Шарыпово;Красноярский край;Шарыпово;Красноярский;4740000001;37258;739153;662305–662315;4.0;0.0;UTC+7
76;https://ru.wikipedia.org/wiki/%D0%94%D0%B8%D0%B2%D0%BD%D0%BE%D0%B3%D0%BE%D1%80%D1%81%D0%BA;55.95;92.38333333;Дивногорск;Красноярский край;Дивногорск;Красноярский;4709000001;29117;739144;663090, 663091, 663093, 663094, 663080 (п.Овсянка);4.0;0.0;UTC+7
77;https://ru.wikipedia.org/wiki/%D0%94%D1%83%D0%B4%D0%B8%D0%BD%D0%BA%D0%B0;69.4;86.18333333;Дудинка;Красноярский край;Дудинка;Красноярский;4653101001;21978;739191;647000;4.0;0.0;UTC+7
78;https://ru.wikipedia.org/wiki/%D0%91%D0%B5%D1%80%D1%91%D0%B7%D0%BE%D0%B2%D0%BA%D0%B0_(%D0%91%D0%B5%D1%80%D1%91%D0%B7%D0%BE%D0%B2%D1%81%D0%BA%D0%B8%D0%B9_%D1%80%D0%B0%D0%B9%D0%BE%D0%BD,_%D0%9A%D1%80%D0%B0%D1%81%D0%BD%D0%BE%D1%8F%D1%80%D1%81%D0%BA%D0%B8%D0%B9_%D0%BA%D1%80%D0%B0%D0%B9);56.02222222;93.11416667;Берёзовка;Красноярский край;Березовка;Красноярский;4605151051;20894;739175;;4.0;0.0;UTC+7
79;https://ru.wikipedia.org/wiki/%D0%91%D0%BE%D0%B3%D0%BE%D1%82%D0%BE%D0%BB;56.2;89.51666667;Боготол;Красноярский край;Боготол;Красноярский;4706000001;20245;739157;"662060 (Боготол)
662061 (Боготол 1)
662062 (Боготол 2)
662063 (Боготол 3)";4.0;0.0;UTC+7
80;https://ru.wikipedia.org/wiki/%D0%95%D0%BD%D0%B8%D1%81%D0%B5%D0%B9%D1%81%D0%BA;58.46666667;92.13333333;Енисейск;Красноярский край;Енисейск;Красноярский;4712000001;17999;739195;;4.0;0.0;UTC+7
81;https://ru.wikipedia.org/wiki/%D0%A8%D1%83%D1%88%D0%B5%D0%BD%D1%81%D0%BA%D0%BE%D0%B5;53.32583333;91.93944444;Шушенское;Красноярский край;Шушенское;Красноярский;4659151051;16846;739139;662720;4.0;0.0;UTC+7
82;https://ru.wikipedia.org/wiki/%D0%91%D0%BE%D1%80%D0%BE%D0%B4%D0%B8%D0%BD%D0%BE_(%D0%B3%D0%BE%D1%80%D0%BE%D0%B4);55.9;94.9;Бородино;Красноярский край;Бородино;Красноярский;4707000001;16249;739168;"663980;663981";4.0;0.0;UTC+7
83;https://ru.wikipedia.org/wiki/%D0%9A%D0%BE%D0%B4%D0%B8%D0%BD%D1%81%D0%BA;58.6;99.18333333;Кодинск;Красноярский край;Кодинск;Красноярский;4624101001;16227;739143;663491, 663492;4.0;0.0;UTC+7
84;https://ru.wikipedia.org/wiki/%D0%A3%D0%B6%D1%83%D1%80;55.31666667;89.81666667;Ужур;Красноярский край;Ужур;Красноярский;4656101001;15566;739156;662251, 662252, 662253, 662255;4.0;0.0;UTC+7
85;https://ru.wikipedia.org/wiki/%D0%98%D0%BB%D0%B0%D0%BD%D1%81%D0%BA%D0%B8%D0%B9;56.23333333;96.06666667;Иланский;Красноярский край;Иланский;Красноярский;4618101001;15137;739173;663800, 663801;4.0;0.0;UTC+7
86;https://ru.wikipedia.org/wiki/%D0%92%D0%BB%D0%B0%D0%B4%D0%B8%D0%B2%D0%BE%D1%81%D1%82%D0%BE%D0%BA;43.11666667;13.03166667;Владивосток;Приморский край;Владивосток;Приморский;5701000001;606589;7423;;5.0;0.0;UTC+10
87;https://ru.wikipedia.org/wiki/%D0%A3%D1%81%D1%81%D1%83%D1%80%D0%B8%D0%B9%D1%81%D0%BA;43.8;13.0325;Уссурийск;Приморский край;Уссурийск;Приморский;5723000001;170660;74234;692500;5.0;0.0;UTC+10
88;https://ru.wikipedia.org/wiki/%D0%9D%D0%B0%D1%85%D0%BE%D0%B4%D0%BA%D0%B0_(%D0%B3%D0%BE%D1%80%D0%BE%D0%B4);42.81666667;13.04805556;Находка;Приморский край;Находка;Приморский;5714000001;151420;74236;6929xx;5.0;0.0;UTC+10
89;https://ru.wikipedia.org/wiki/%D0%90%D1%80%D1%82%D1%91%D0%BC_(%D0%B3%D0%BE%D1%80%D0%BE%D0%B4);43.35;13.03638889;Артём;Приморский край;Артем;Приморский;5705000001;106732;742337;;5.0;0.0;UTC+10
90;https://ru.wikipedia.org/wiki/%D0%90%D1%80%D1%81%D0%B5%D0%BD%D1%8C%D0%B5%D0%B2_(%D0%B3%D0%BE%D1%80%D0%BE%D0%B4);44.16666667;13.05444444;Арсеньев;Приморский край;Арсеньев;Приморский;5703000001;52767;742361;;5.0;0.0;UTC+10
91;https://ru.wikipedia.org/wiki/%D0%A1%D0%BF%D0%B0%D1%81%D1%81%D0%BA-%D0%94%D0%B0%D0%BB%D1%8C%D0%BD%D0%B8%D0%B9;44.6;13.04694444;Спасск-Дальний;Приморский край;Спасск-Дальний;Приморский;5720000001;41127;742352;692245;5.0;0.0;UTC+10
92;https://ru.wikipedia.org/wiki/%D0%91%D0%BE%D0%BB%D1%8C%D1%88%D0%BE%D0%B9_%D0%9A%D0%B0%D0%BC%D0%B5%D0%BD%D1%8C;43.11666667;13.03916667;Большой Камень;Приморский край;Большой Камень;Приморский;5706000001;38493;742335;;5.0;0.0;UTC+10
93;https://ru.wikipedia.org/wiki/%D0%9F%D0%B0%D1%80%D1%82%D0%B8%D0%B7%D0%B0%D0%BD%D1%81%D0%BA;43.13333333;13.05222222;Партизанск;Приморский край;Партизанск;Приморский;5717000001;37291;742363;692864;5.0;0.0;UTC+10
94;https://ru.wikipedia.org/wiki/%D0%9B%D0%B5%D1%81%D0%BE%D0%B7%D0%B0%D0%B2%D0%BE%D0%B4%D1%81%D0%BA;45.46666667;13.05666667;Лесозаводск;Приморский край;Лесозаводск;Приморский;5711000001;35816;+7 42355;;5.0;0.0;UTC+10
95;https://ru.wikipedia.org/wiki/%D0%94%D0%B0%D0%BB%D1%8C%D0%BD%D0%B5%D0%B3%D0%BE%D1%80%D1%81%D0%BA;44.56666667;13.09361111;Дальнегорск;Приморский край;Дальнегорск;Приморский;5707000001;35034;742373;692441–692446;5.0;0.0;UTC+10
96;https://ru.wikipedia.org/wiki/%D0%94%D0%B0%D0%BB%D1%8C%D0%BD%D0%B5%D1%80%D0%B5%D1%87%D0%B5%D0%BD%D1%81%D0%BA;45.93333333;13.06222222;Дальнереченск;Приморский край;Дальнереченск;Приморский;5708000001;26121;742356;;5.0;0.0;UTC+10
97;https://ru.wikipedia.org/wiki/%D0%A4%D0%BE%D0%BA%D0%B8%D0%BD%D0%BE_(%D0%9F%D1%80%D0%B8%D0%BC%D0%BE%D1%80%D1%81%D0%BA%D0%B8%D0%B9_%D0%BA%D1%80%D0%B0%D0%B9);42.96666667;13.04;Фокино;Приморский край;Фокино;Приморский;5747000001;23157;742339;;5.0;0.0;UTC+10
98;https://ru.wikipedia.org/wiki/%D0%9B%D1%83%D1%87%D0%B5%D0%B3%D0%BE%D1%80%D1%81%D0%BA;46.45;13.07138889;Лучегорск;Приморский край;Лучегорск;Приморский;5634151051;19352;742357;;5.0;0.0;UTC+10
99;https://ru.wikipedia.org/wiki/%D0%A2%D1%80%D1%83%D0%B4%D0%BE%D0%B2%D0%BE%D0%B5_(%D0%9F%D1%80%D0%B8%D0%BC%D0%BE%D1%80%D1%81%D0%BA%D0%B8%D0%B9_%D0%BA%D1%80%D0%B0%D0%B9);43.29888889;13.03416667;Трудовое;Приморский край;Трудовое;Приморский;5701000116;18522;7423;;5.0;0.0;UTC+10
100;https://ru.wikipedia.org/wiki/%D0%9A%D0%B0%D0%B2%D0%B0%D0%BB%D0%B5%D1%80%D0%BE%D0%B2%D0%BE;44.27055556;13.08416667;Кавалерово;Приморский край;Кавалерово;Приморский;5610151051;14525;742375;692420;5.0;0.0;UTC+10
101;https://ru.wikipedia.org/wiki/%D0%A7%D0%B5%D1%80%D0%BD%D0%B8%D0%B3%D0%BE%D0%B2%D0%BA%D0%B0_(%D0%9F%D1%80%D0%B8%D0%BC%D0%BE%D1%80%D1%81%D0%BA%D0%B8%D0%B9_%D0%BA%D1%80%D0%B0%D0%B9);44.33333333;13.04277778;Черниговка;Приморский край;Черниговка;Приморский;5653425101;13046;742351;;5.0;0.0;UTC+10
102;https://ru.wikipedia.org/wiki/%D0%A1%D0%BB%D0%B0%D0%B2%D1%8F%D0%BD%D0%BA%D0%B0_(%D0%9F%D1%80%D0%B8%D0%BC%D0%BE%D1%80%D1%81%D0%BA%D0%B8%D0%B9_%D0%BA%D1%80%D0%B0%D0%B9);42.85;13.02305556;Славянка;Приморский край;Славянка;Приморский;5648151051;12314;742331;692701;5.0;0.0;UTC+10
103;https://ru.wikipedia.org/wiki/%D0%A7%D1%83%D0%B3%D1%83%D0%B5%D0%B2%D0%BA%D0%B0_(%D0%9F%D1%80%D0%B8%D0%BC%D0%BE%D1%80%D1%81%D0%BA%D0%B8%D0%B9_%D0%BA%D1%80%D0%B0%D0%B9);44.16666667;13.06416667;Чугуевка;Приморский край;Чугуевка;Приморский;5655437101;12171;742372;692623, 692621;5.0;0.0;UTC+10
104;https://ru.wikipedia.org/wiki/%D0%9A%D0%B0%D0%BC%D0%B5%D0%BD%D1%8C-%D0%A0%D1%8B%D0%B1%D0%BE%D0%BB%D0%BE%D0%B2;44.76666667;13.03361111;Камень-Рыболов;Приморский край;Камень-Рыболов;Приморский;5646404101;10909;742349;692684;5.0;0.0;UTC+10
105;https://ru.wikipedia.org/wiki/%D0%A5%D0%BE%D1%80%D0%BE%D0%BB%D1%8C;44.425;13.03444444;Хороль;Приморский край;Хороль;Приморский;5650425101;10860;742347;;5.0;0.0;UTC+10
106;https://ru.wikipedia.org/wiki/%D0%9F%D0%BE%D0%BA%D1%80%D0%BE%D0%B2%D0%BA%D0%B0_(%D0%9E%D0%BA%D1%82%D1%8F%D0%B1%D1%80%D1%8C%D1%81%D0%BA%D0%B8%D0%B9_%D1%80%D0%B0%D0%B9%D0%BE%D0%BD,_%D0%9F%D1%80%D0%B8%D0%BC%D0%BE%D1%80%D1%81%D0%BA%D0%B8%D0%B9_%D0%BA%D1%80%D0%B0%D0%B9);43.95;13.02722222;Покровка;Приморский край;Покровка;Приморский;5626410101;10360;742344;692561;5.0;0.0;UTC+10
107;https://ru.wikipedia.org/wiki/%D0%9F%D0%BE%D0%B3%D1%80%D0%B0%D0%BD%D0%B8%D1%87%D0%BD%D1%8B%D0%B9_(%D0%9F%D1%80%D0%B8%D0%BC%D0%BE%D1%80%D1%81%D0%BA%D0%B8%D0%B9_%D0%BA%D1%80%D0%B0%D0%B9);44.41361111;13.02277778;Пограничный;Приморский край;Пограничный;Приморский;5632151051;10215;742345;692582;5.0;0.0;UTC+10
108;https://ru.wikipedia.org/wiki/%D0%A1%D1%82%D0%B0%D0%B2%D1%80%D0%BE%D0%BF%D0%BE%D0%BB%D1%8C;45.03333333;41.96666667;Ставрополь;Ставропольский край;Ставрополь;Ставропольский;7701000001;433577;78652;;7.0;0.0;UTC+3
109;https://ru.wikipedia.org/wiki/%D0%9F%D1%8F%D1%82%D0%B8%D0%B3%D0%BE%D1%80%D1%81%D0%BA;44.05;43.06;Пятигорск;Ставропольский край;Пятигорск;Ставропольский;7727000001;145836;78793;357500;7.0;0.0;UTC+3
110;https://ru.wikipedia.org/wiki/%D0%9A%D0%B8%D1%81%D0%BB%D0%BE%D0%B2%D0%BE%D0%B4%D1%81%D0%BA;43.90333333;42.72444444;Кисловодск;Ставропольский край;Кисловодск;Ставропольский;7715000001;129861;787937;;7.0;0.0;UTC+3
111;https://ru.wikipedia.org/wiki/%D0%9D%D0%B5%D0%B2%D0%B8%D0%BD%D0%BD%D0%BE%D0%BC%D1%8B%D1%81%D1%81%D0%BA;44.63333333;41.93333333;Невинномысск;Ставропольский край;Невинномысск;Ставропольский;7724000001;117676;786554;;7.0;0.0;UTC+3
112;https://ru.wikipedia.org/wiki/%D0%95%D1%81%D1%81%D0%B5%D0%BD%D1%82%D1%83%D0%BA%D0%B8;44.04305556;42.86444444;Ессентуки;Ставропольский край;Ессентуки;Ставропольский;7710000001;107104;787934;357601;7.0;0.0;UTC+3
113;https://ru.wikipedia.org/wiki/%D0%9C%D0%B8%D1%85%D0%B0%D0%B9%D0%BB%D0%BE%D0%B2%D1%81%D0%BA_(%D0%A1%D1%82%D0%B0%D0%B2%D1%80%D0%BE%D0%BF%D0%BE%D0%BB%D1%8C%D1%81%D0%BA%D0%B8%D0%B9_%D0%BA%D1%80%D0%B0%D0%B9);45.13944444;42.03388889;Михайловск;Ставропольский край;Михайловск;Ставропольский;7658101001;87916;786553;;7.0;0.0;UTC+3
114;https://ru.wikipedia.org/wiki/%D0%9C%D0%B8%D0%BD%D0%B5%D1%80%D0%B0%D0%BB%D1%8C%D0%BD%D1%8B%D0%B5_%D0%92%D0%BE%D0%B4%D1%8B;44.20083333;43.1125;Минеральные Воды;Ставропольский край;Минеральные Воды;Ставропольский;7721000001;75381;787922;357200;7.0;0.0;UTC+3
115;https://ru.wikipedia.org/wiki/%D0%93%D0%B5%D0%BE%D1%80%D0%B3%D0%B8%D0%B5%D0%B2%D1%81%D0%BA;44.15;43.46666667;Георгиевск;Ставропольский край;Георгиевск;Ставропольский;7707000001;69030;787951;357820;7.0;0.0;UTC+3
116;https://ru.wikipedia.org/wiki/%D0%91%D1%83%D0%B4%D1%91%D0%BD%D0%BD%D0%BE%D0%B2%D1%81%D0%BA;44.78333333;44.13333333;Будённовск;Ставропольский край;Буденновск;Ставропольский;7612101001;62715;786559;;7.0;0.0;UTC+3
117;https://ru.wikipedia.org/wiki/%D0%98%D0%B7%D0%BE%D0%B1%D0%B8%D0%BB%D1%8C%D0%BD%D1%8B%D0%B9;45.36666667;41.71666667;Изобильный;Ставропольский край;Изобильный;Ставропольский;7620101001;38263;786545;356140;7.0;0.0;UTC+3
118;https://ru.wikipedia.org/wiki/%D0%A1%D0%B2%D0%B5%D1%82%D0%BB%D0%BE%D0%B3%D1%80%D0%B0%D0%B4;45.33083333;42.85111111;Светлоград;Ставропольский край;Светлоград;Ставропольский;7646101001;36935;786547;356530;7.0;0.0;UTC+3
119;https://ru.wikipedia.org/wiki/%D0%93%D0%BE%D1%80%D1%8F%D1%87%D0%B5%D0%B2%D0%BE%D0%B4%D1%81%D0%BA%D0%B8%D0%B9;44.02138889;43.09722222;Горячеводский;Ставропольский край;Горячеводский;Ставропольский;7727000056;36732;78793;357560;7.0;0.0;UTC+3
120;https://ru.wikipedia.org/wiki/%D0%97%D0%B5%D0%BB%D0%B5%D0%BD%D0%BE%D0%BA%D1%83%D0%BC%D1%81%D0%BA;44.40694444;43.87305556;Зеленокумск;Ставропольский край;Зеленокумск;Ставропольский;7650101001;35646;786552;;7.0;0.0;UTC+3
121;https://ru.wikipedia.org/wiki/%D0%91%D0%BB%D0%B0%D0%B3%D0%BE%D0%B4%D0%B0%D1%80%D0%BD%D1%8B%D0%B9;45.10277778;43.42527778;Благодарный;Ставропольский край;Благодарный;Ставропольский;7610101001;31293;+7 86549;356420;7.0;0.0;UTC+3
122;https://ru.wikipedia.org/wiki/%D0%90%D0%BB%D0%B5%D0%BA%D1%81%D0%B0%D0%BD%D0%B4%D1%80%D0%BE%D0%B2%D1%81%D0%BA%D0%BE%D0%B5_(%D0%A1%D1%82%D0%B0%D0%B2%D1%80%D0%BE%D0%BF%D0%BE%D0%BB%D1%8C%D1%81%D0%BA%D0%B8%D0%B9_%D0%BA%D1%80%D0%B0%D0%B9);44.7;42.98333333;Александровское;Ставропольский край;Александровское;Ставропольский;7602402101;27471;786557;;7.0;0.0;UTC+3
123;https://ru.wikipedia.org/wiki/%D0%98%D0%BD%D0%BE%D0%B7%D0%B5%D0%BC%D1%86%D0%B5%D0%B2%D0%BE;44.1;43.1;Иноземцево;Ставропольский край;Иноземцево;Ставропольский;7712000056;27455;;357432;7.0;0.0;UTC+3
124;https://ru.wikipedia.org/wiki/%D0%9D%D0%BE%D0%B2%D0%BE%D0%B0%D0%BB%D0%B5%D0%BA%D1%81%D0%B0%D0%BD%D0%B4%D1%80%D0%BE%D0%B2%D1%81%D0%BA;45.49333333;41.21833333;Новоалександровск;Ставропольский край;Новоалександровск;Ставропольский;7643101001;27009;786544;356000;7.0;0.0;UTC+3
125;https://ru.wikipedia.org/wiki/%D0%9D%D0%BE%D0%B2%D0%BE%D0%BF%D0%B0%D0%B2%D0%BB%D0%BE%D0%B2%D1%81%D0%BA;43.96361111;43.63944444;Новопавловск;Ставропольский край;Новопавловск;Ставропольский;7625101001;26234;787938;;7.0;0.0;UTC+3
126;https://ru.wikipedia.org/wiki/%D0%9A%D0%BE%D1%87%D1%83%D0%B1%D0%B5%D0%B5%D0%B2%D1%81%D0%BA%D0%BE%D0%B5;44.67055556;41.83805556;Кочубеевское;Ставропольский край;Кочубеевское;Ставропольский;7628422101;25840;786550;;7.0;0.0;UTC+3
127;https://ru.wikipedia.org/wiki/%D0%96%D0%B5%D0%BB%D0%B5%D0%B7%D0%BD%D0%BE%D0%B2%D0%BE%D0%B4%D1%81%D0%BA;44.13333333;43.03333333;Железноводск;Ставропольский край;Железноводск;Ставропольский;7712000001;25203;787932;357400;7.0;0.0;UTC+3
128;https://ru.wikipedia.org/wiki/%D0%9D%D0%B5%D1%84%D1%82%D0%B5%D0%BA%D1%83%D0%BC%D1%81%D0%BA;44.75055556;44.97972222;Нефтекумск;Ставропольский край;Нефтекумск;Ставропольский;7641101001;24841;786558;356880;7.0;0.0;UTC+3
129;https://ru.wikipedia.org/wiki/%D0%98%D0%BF%D0%B0%D1%82%D0%BE%D0%B2%D0%BE;45.71666667;42.9;Ипатово;Ставропольский край;Ипатово;Ставропольский;7622101001;24390;786542;356630;7.0;0.0;UTC+3
130;https://ru.wikipedia.org/wiki/%D0%9B%D0%B5%D1%80%D0%BC%D0%BE%D0%BD%D1%82%D0%BE%D0%B2_(%D0%B3%D0%BE%D1%80%D0%BE%D0%B4);44.10527778;42.97166667;Лермонтов;Ставропольский край;Лермонтов;Ставропольский;7718000001;22477;787935;357340;7.0;0.0;UTC+3
131;https://ru.wikipedia.org/wiki/%D0%95%D1%81%D1%81%D0%B5%D0%BD%D1%82%D1%83%D0%BA%D1%81%D0%BA%D0%B0%D1%8F;44.02694444;42.87444444;Ессентукская;Ставропольский край;Ессентукская;Ставропольский;7648413101;20166;787961;;7.0;0.0;UTC+3
132;https://ru.wikipedia.org/wiki/%D0%9D%D0%B5%D0%B7%D0%BB%D0%BE%D0%B1%D0%BD%D0%B0%D1%8F;44.11666667;43.38333333;Незлобная;Ставропольский край;Незлобная;Ставропольский;7615413101;19746;;;7.0;0.0;UTC+3
133;https://ru.wikipedia.org/wiki/%D0%9F%D0%BE%D1%81%D1%91%D0%BB%D0%BE%D0%BA_%D0%A1%D0%B2%D0%BE%D0%B1%D0%BE%D0%B4%D1%8B;44.02277778;43.04611111;Свободы;Ставропольский край;Свободы;Ставропольский;7727000061;17740;+7 879 3;357550;7.0;0.0;UTC+3
134;https://ru.wikipedia.org/wiki/%D0%A1%D1%83%D0%B2%D0%BE%D1%80%D0%BE%D0%B2%D1%81%D0%BA%D0%B0%D1%8F_(%D0%A1%D1%82%D0%B0%D0%B2%D1%80%D0%BE%D0%BF%D0%BE%D0%BB%D1%8C%D1%81%D0%BA%D0%B8%D0%B9_%D0%BA%D1%80%D0%B0%D0%B9);44.18472222;42.66444444;Суворовская;Ставропольский край;Суворовская;Ставропольский;7648431101;17585;+7 879 61;357390;7.0;0.0;UTC+3
135;https://ru.wikipedia.org/wiki/%D0%9A%D1%80%D0%B0%D1%81%D0%BD%D0%BE%D0%BA%D1%83%D0%BC%D1%81%D0%BA%D0%BE%D0%B5;44.17777778;43.5;Краснокумское;Ставропольский край;Краснокумское;Ставропольский;7615406101;17451;;;7.0;0.0;UTC+3
136;https://ru.wikipedia.org/wiki/%D0%9A%D1%80%D0%B0%D1%81%D0%BD%D0%BE%D0%B3%D0%B2%D0%B0%D1%80%D0%B4%D0%B5%D0%B9%D1%81%D0%BA%D0%BE%D0%B5_(%D0%A1%D1%82%D0%B0%D0%B2%D1%80%D0%BE%D0%BF%D0%BE%D0%BB%D1%8C%D1%81%D0%BA%D0%B8%D0%B9_%D0%BA%D1%80%D0%B0%D0%B9);45.85;41.51666667;Красногвардейское;Ставропольский край;Красногвардейское;Ставропольский;7630407101;14881;786541;356031;7.0;0.0;UTC+3
137;https://ru.wikipedia.org/wiki/%D0%91%D1%83%D0%B4%D1%91%D0%BD%D0%BD%D0%BE%D0%B2%D1%81%D0%BA;44.78333333;44.13333333;Будённовск;Ставропольский край;Буденновск;Ставропольский;7612101001;7732;786559;;7.0;0.0;UTC+3
138;https://ru.wikipedia.org/wiki/%D0%A5%D0%B0%D0%B1%D0%B0%D1%80%D0%BE%D0%B2%D1%81%D0%BA;48.48333333;13.08444444;Хабаровск;Хабаровский край;Хабаровск;Хабаровский;8701000001;616242;74212;;8.0;0.0;UTC+10
139;https://ru.wikipedia.org/wiki/%D0%9A%D0%BE%D0%BC%D1%81%D0%BE%D0%BC%D0%BE%D0%BB%D1%8C%D1%81%D0%BA-%D0%BD%D0%B0-%D0%90%D0%BC%D1%83%D1%80%D0%B5;50.55;13.11666667;Комсомольск-на-Амуре;Хабаровский край;Комсомольск-на-Амуре;Хабаровский;8709000001;249810;74217;;8.0;0.0;UTC+10
140;https://ru.wikipedia.org/wiki/%D0%90%D0%BC%D1%83%D1%80%D1%81%D0%BA;50.21666667;13.115;Амурск;Хабаровский край;Амурск;Хабаровский;8603101001;40106;742142;;8.0;0.0;UTC+10
141;https://ru.wikipedia.org/wiki/%D0%A1%D0%BE%D0%B2%D0%B5%D1%82%D1%81%D0%BA%D0%B0%D1%8F_%D0%93%D0%B0%D0%B2%D0%B0%D0%BD%D1%8C;48.9575;14.00444444;Советская Гавань;Хабаровский край;Советская Гавань;Хабаровский;8642101001;24671;742138;682800;8.0;0.0;UTC+10
142;https://ru.wikipedia.org/wiki/%D0%9D%D0%B8%D0%BA%D0%BE%D0%BB%D0%B0%D0%B5%D0%B2%D1%81%D0%BA-%D0%BD%D0%B0-%D0%90%D0%BC%D1%83%D1%80%D0%B5;53.15;14.01222222;Николаевск-на-Амуре;Хабаровский край;Николаевск-на-Амуре;Хабаровский;8631101001;19135;742135;682460;8.0;0.0;UTC+10
143;https://ru.wikipedia.org/wiki/%D0%91%D0%B8%D0%BA%D0%B8%D0%BD_(%D0%B3%D0%BE%D1%80%D0%BE%D0%B4);46.81666667;13.07083333;Бикин;Хабаровский край;Бикин;Хабаровский;8609101001;15928;742155;682970;8.0;0.0;UTC+10
144;https://ru.wikipedia.org/wiki/%D0%92%D0%B0%D0%BD%D0%B8%D0%BD%D0%BE;49.08333333;14.00444444;Ванино;Хабаровский край;Ванино;Хабаровский;8612151051;15485;742137;682860;8.0;0.0;UTC+10
145;https://ru.wikipedia.org/wiki/%D0%92%D1%8F%D0%B7%D0%B5%D0%BC%D1%81%D0%BA%D0%B8%D0%B9_(%D0%B3%D0%BE%D1%80%D0%BE%D0%B4);47.53333333;13.07916667;Вяземский;Хабаровский край;Вяземский;Хабаровский;8617101001;13187;742153;682950;8.0;0.0;UTC+10
146;https://ru.wikipedia.org/wiki/%D0%A7%D0%B5%D0%B3%D0%B4%D0%BE%D0%BC%D1%8B%D0%BD;51.11666667;13.05;Чегдомын;Хабаровский край;Чегдомын;Хабаровский;8614151051;12170;742149;;8.0;0.0;UTC+10
147;https://ru.wikipedia.org/wiki/%D0%A1%D0%BE%D0%BB%D0%BD%D0%B5%D1%87%D0%BD%D1%8B%D0%B9_(%D0%A5%D0%B0%D0%B1%D0%B0%D1%80%D0%BE%D0%B2%D1%81%D0%BA%D0%B8%D0%B9_%D0%BA%D1%80%D0%B0%D0%B9);50.71666667;13.11055556;Солнечный;Хабаровский край;Солнечный;Хабаровский;8644151051;11975;742146;682711;8.0;0.0;UTC+10
148;https://ru.wikipedia.org/wiki/%D0%AD%D0%BB%D1%8C%D0%B1%D0%B0%D0%BD;50.09138889;13.10833333;Эльбан;Хабаровский край;Эльбан;Хабаровский;8603160051;11438;+7 421 42;682610;8.0;0.0;UTC+10
149;https://ru.wikipedia.org/wiki/%D0%A5%D0%BE%D1%80_(%D0%A5%D0%B0%D0%B1%D0%B0%D1%80%D0%BE%D0%B2%D1%81%D0%BA%D0%B8%D0%B9_%D0%BA%D1%80%D0%B0%D0%B9);47.88277778;13.08222222;Хор;Хабаровский край;Хор;Хабаровский;8624157051;9545;+7 421 54;682920;8.0;0.0;UTC+10
150;https://ru.wikipedia.org/wiki/%D0%9D%D0%B5%D0%BA%D1%80%D0%B0%D1%81%D0%BE%D0%B2%D0%BA%D0%B0_(%D0%A5%D0%B0%D0%B1%D0%B0%D1%80%D0%BE%D0%B2%D1%81%D0%BA%D0%B8%D0%B9_%D0%BA%D1%80%D0%B0%D0%B9);48.35277778;13.08722222;Некрасовка;Хабаровский край;Некрасовка;Хабаровский;8655448101;9170;74212;;8.0;0.0;UTC+10
151;https://ru.wikipedia.org/wiki/%D0%9A%D0%BD%D1%8F%D0%B7%D0%B5-%D0%92%D0%BE%D0%BB%D0%BA%D0%BE%D0%BD%D1%81%D0%BA%D0%BE%D0%B5;48.46666667;13.09111111;Князе-Волконское;Хабаровский край;Князе-Волконское;Хабаровский;8655425101;9169;74212;680550;8.0;0.0;UTC+10
152;https://ru.wikipedia.org/wiki/%D0%97%D0%B0%D0%B2%D0%B5%D1%82%D1%8B_%D0%98%D0%BB%D1%8C%D0%B8%D1%87%D0%B0_(%D0%A5%D0%B0%D0%B1%D0%B0%D1%80%D0%BE%D0%B2%D1%81%D0%BA%D0%B8%D0%B9_%D0%BA%D1%80%D0%B0%D0%B9);49.02055556;14.00361111;Заветы Ильича;Хабаровский край;Заветы Ильича;Хабаровский;8642159051;8527;+7 421 38;682844;8.0;0.0;UTC+10
153;https://ru.wikipedia.org/wiki/%D0%9F%D0%B5%D1%80%D0%B5%D1%8F%D1%81%D0%BB%D0%B0%D0%B2%D0%BA%D0%B0;47.96305556;13.08416667;Переяславка;Хабаровский край;Переяславка;Хабаровский;8624151051;7621;+7 421 54;;8.0;0.0;UTC+10
154;https://ru.wikipedia.org/wiki/%D0%9D%D0%BE%D0%B2%D1%8B%D0%B9_%D0%A3%D1%80%D0%B3%D0%B0%D0%BB;51.0775;13.04333333;Новый Ургал;Хабаровский край;Новый Ургал;Хабаровский;8614153051;6332;+7 421 49;682071;8.0;0.0;UTC+10
155;https://ru.wikipedia.org/wiki/%D0%A5%D1%83%D1%80%D0%B1%D0%B0_(%D1%81%D0%B5%D0%BB%D0%BE);50.40694444;13.11444444;Хурба;Хабаровский край;Хурба;Хабаровский;8620461101;6277;742172;681060;8.0;0.0;UTC+10
156;https://ru.wikipedia.org/wiki/%D0%9A%D0%BE%D1%80%D1%84%D0%BE%D0%B2%D1%81%D0%BA%D0%B8%D0%B9;48.21666667;13.08416667;Корфовский;Хабаровский край;Корфовский;Хабаровский;8655155051;5837;7421;680504;8.0;0.0;UTC+10
157;https://ru.wikipedia.org/wiki/%D0%9E%D0%BA%D1%82%D1%8F%D0%B1%D1%80%D1%8C%D1%81%D0%BA%D0%B8%D0%B9_(%D0%92%D0%B0%D0%BD%D0%B8%D0%BD%D1%81%D0%BA%D0%B8%D0%B9_%D1%80%D0%B0%D0%B9%D0%BE%D0%BD);49.06111111;14.00361111;Октябрьский;Хабаровский край;Октябрьский;Хабаровский;8612159051;5816;+7 421 37;682892;8.0;0.0;UTC+10
158;https://ru.wikipedia.org/wiki/%D0%91%D0%B5%D1%80%D1%91%D0%B7%D0%BE%D0%B2%D1%8B%D0%B9_(%D0%A5%D0%B0%D0%B1%D0%B0%D1%80%D0%BE%D0%B2%D1%81%D0%BA%D0%B8%D0%B9_%D0%BA%D1%80%D0%B0%D0%B9);51.66611111;13.09444444;Берёзовый;Хабаровский край;Березовый;Хабаровский;8644404101;5357;742146;682738;8.0;0.0;UTC+10
159;https://ru.wikipedia.org/wiki/%D0%A2%D1%80%D0%BE%D0%B8%D1%86%D0%BA%D0%BE%D0%B5_(%D0%A5%D0%B0%D0%B1%D0%B0%D1%80%D0%BE%D0%B2%D1%81%D0%BA%D0%B8%D0%B9_%D0%BA%D1%80%D0%B0%D0%B9);49.44083333;13.10916667;Троицкое;Хабаровский край;Троицкое;Хабаровский;8628439101;4714;742156;682350;8.0;0.0;UTC+10
160;https://ru.wikipedia.org/wiki/%D0%A2%D0%BE%D0%BF%D0%BE%D0%BB%D0%B5%D0%B2%D0%BE_(%D0%A5%D0%B0%D0%B1%D0%B0%D1%80%D0%BE%D0%B2%D1%81%D0%BA%D0%B8%D0%B9_%D0%BA%D1%80%D0%B0%D0%B9);48.49944444;13.08638889;Тополево;Хабаровский край;Тополево;Хабаровский;8655465101;4564;74212;;8.0;0.0;UTC+10
161;https://ru.wikipedia.org/wiki/%D0%A1%D0%B5%D0%BB%D0%B8%D1%85%D0%B8%D0%BD%D0%BE;50.36888889;13.125;Селихино;Хабаровский край;Селихино;Хабаровский;8620449101;4349;742172;681085;8.0;0.0;UTC+10
162;https://ru.wikipedia.org/wiki/%D0%91%D0%BB%D0%B0%D0%B3%D0%BE%D0%B2%D0%B5%D1%89%D0%B5%D0%BD%D1%81%D0%BA;50.25777778;12.12555556;Благовещенск;Амурская область;Благовещенск;Амурская;10701000001;224419;74162;;10.0;0.0;UTC+9
163;https://ru.wikipedia.org/wiki/%D0%91%D0%B5%D0%BB%D0%BE%D0%B3%D0%BE%D1%80%D1%81%D0%BA_(%D0%90%D0%BC%D1%83%D1%80%D1%81%D0%BA%D0%B0%D1%8F_%D0%BE%D0%B1%D0%BB%D0%B0%D1%81%D1%82%D1%8C);50.91666667;12.14138889;Белогорск;Амурская область;Белогорск;Амурская;10710000001;66445;741641;676850;10.0;0.0;UTC+9
164;https://ru.wikipedia.org/wiki/%D0%A1%D0%B2%D0%BE%D0%B1%D0%BE%D0%B4%D0%BD%D1%8B%D0%B9_(%D0%B3%D0%BE%D1%80%D0%BE%D0%B4);51.38333333;12.13555556;Свободный;Амурская область;Свободный;Амурская;10730000001;54156;741643;676450;10.0;0.0;UTC+9
165;https://ru.wikipedia.org/wiki/%D0%A2%D1%8B%D0%BD%D0%B4%D0%B0;55.15;12.07861111;Тында;Амурская область;Тында;Амурская;10732000001;33189;741656;676282;10.0;0.0;UTC+9
166;https://ru.wikipedia.org/wiki/%D0%97%D0%B5%D1%8F_(%D0%B3%D0%BE%D1%80%D0%BE%D0%B4);53.73333333;12.12083333;Зея;Амурская область;Зея;Амурская;10712000001;23505;741658;676246;10.0;0.0;UTC+9
167;https://ru.wikipedia.org/wiki/%D0%A8%D0%B8%D0%BC%D0%B0%D0%BD%D0%BE%D0%B2%D1%81%D0%BA;52.0;12.12777778;Шимановск;Амурская область;Шимановск;Амурская;10740000001;18706;741651;676300;10.0;0.0;UTC+9
168;https://ru.wikipedia.org/wiki/%D0%A0%D0%B0%D0%B9%D1%87%D0%B8%D1%85%D0%B8%D0%BD%D1%81%D0%BA;49.8;12.15666667;Райчихинск;Амурская область;Райчихинск;Амурская;10720000001;17590;741647;676770;10.0;0.0;UTC+9
169;https://ru.wikipedia.org/wiki/%D0%97%D0%B0%D0%B2%D0%B8%D1%82%D0%B8%D0%BD%D1%81%D0%BA;50.11666667;12.15722222;Завитинск;Амурская область;Завитинск;Амурская;10621101001;10743;741636;676870;10.0;0.0;UTC+9
170;https://ru.wikipedia.org/wiki/%D0%9F%D1%80%D0%BE%D0%B3%D1%80%D0%B5%D1%81%D1%81_(%D0%90%D0%BC%D1%83%D1%80%D1%81%D0%BA%D0%B0%D1%8F_%D0%BE%D0%B1%D0%BB%D0%B0%D1%81%D1%82%D1%8C);49.74472222;12.16111111;Прогресс;Амурская область;Прогресс;Амурская;10775000051;10078;741647;676790;10.0;0.0;UTC+9
171;https://ru.wikipedia.org/wiki/%D0%9C%D0%B0%D0%B3%D0%B4%D0%B0%D0%B3%D0%B0%D1%87%D0%B8;53.45277778;12.09666667;Магдагачи;Амурская область;Магдагачи;Амурская;10631151051;10070;741653;676124;10.0;0.0;UTC+9
172;https://ru.wikipedia.org/wiki/%D0%A1%D0%B5%D1%80%D1%8B%D1%88%D0%B5%D0%B2%D0%BE;51.13305556;12.13888889;Серышево;Амурская область;Серышево;Амурская;10647151051;9855;741642;67635Х;10.0;0.0;UTC+9
173;https://ru.wikipedia.org/wiki/%D0%A7%D0%B8%D0%B3%D0%B8%D1%80%D0%B8_(%D0%90%D0%BC%D1%83%D1%80%D1%81%D0%BA%D0%B0%D1%8F_%D0%BE%D0%B1%D0%BB%D0%B0%D1%81%D1%82%D1%8C);50.33888889;12.125;Чигири;Амурская область;Чигири;Амурская;10611440101;9402;;675520;10.0;0.0;UTC+9
174;https://ru.wikipedia.org/wiki/%D0%95%D0%BA%D0%B0%D1%82%D0%B5%D1%80%D0%B8%D0%BD%D0%BE%D1%81%D0%BB%D0%B0%D0%B2%D0%BA%D0%B0_(%D0%90%D0%BC%D1%83%D1%80%D1%81%D0%BA%D0%B0%D1%8F_%D0%BE%D0%B1%D0%BB%D0%B0%D1%81%D1%82%D1%8C);50.37916667;12.15166667;Екатеринославка;Амурская область;Екатеринославка;Амурская;10638403101;9383;741652;676630;10.0;0.0;UTC+9
175;https://ru.wikipedia.org/wiki/%D0%A1%D0%BA%D0%BE%D0%B2%D0%BE%D1%80%D0%BE%D0%B4%D0%B8%D0%BD%D0%BE;53.98333333;12.06555556;Сковородино;Амурская область;Сковородино;Амурская;10649101001;9283;741654;676010;10.0;0.0;UTC+9
176;https://ru.wikipedia.org/wiki/%D0%90%D1%80%D1%85%D0%B0%D1%80%D0%B0;49.42555556;13.00111111;Архара;Амурская область;Архара;Амурская;10605151051;8842;741648;676740;10.0;0.0;UTC+9
177;https://ru.wikipedia.org/wiki/%D0%A2%D0%B0%D0%BC%D0%B1%D0%BE%D0%B2%D0%BA%D0%B0_(%D0%90%D0%BC%D1%83%D1%80%D1%81%D0%BA%D0%B0%D1%8F_%D0%BE%D0%B1%D0%BB%D0%B0%D1%81%D1%82%D1%8C);50.09805556;12.13416667;Тамбовка;Амурская область;Тамбовка;Амурская;10651456101;7374;741638;676950;10.0;0.0;UTC+9
178;https://ru.wikipedia.org/wiki/%D0%9D%D0%BE%D0%B2%D0%BE%D0%B1%D1%83%D1%80%D0%B5%D0%B9%D1%81%D0%BA%D0%B8%D0%B9;49.80194444;12.16444444;Новобурейский;Амурская область;Новобурейский;Амурская;10615151051;7040;741634;;10.0;0.0;UTC+9
179;https://ru.wikipedia.org/wiki/%D0%9F%D0%BE%D1%8F%D1%80%D0%BA%D0%BE%D0%B2%D0%BE_(%D0%90%D0%BC%D1%83%D1%80%D1%81%D0%BA%D0%B0%D1%8F_%D0%BE%D0%B1%D0%BB%D0%B0%D1%81%D1%82%D1%8C);49.63333333;12.14388889;Поярково;Амурская область;Поярково;Амурская;10635442101;6950;741637;676680;10.0;0.0;UTC+9
180;https://ru.wikipedia.org/wiki/%D0%A6%D0%B8%D0%BE%D0%BB%D0%BA%D0%BE%D0%B2%D1%81%D0%BA%D0%B8%D0%B9_(%D0%B3%D0%BE%D1%80%D0%BE%D0%B4);51.76;12.13527778;Циолковский;Амурская область;Циолковский;Амурская;10770000001;6526;741643;676470;10.0;0.0;UTC+9
181;https://ru.wikipedia.org/wiki/%D0%98%D0%B2%D0%B0%D0%BD%D0%BE%D0%B2%D0%BA%D0%B0_(%D0%98%D0%B2%D0%B0%D0%BD%D0%BE%D0%B2%D1%81%D0%BA%D0%B8%D0%B9_%D1%80%D0%B0%D0%B9%D0%BE%D0%BD,_%D0%90%D0%BC%D1%83%D1%80%D1%81%D0%BA%D0%B0%D1%8F_%D0%BE%D0%B1%D0%BB%D0%B0%D1%81%D1%82%D1%8C);50.36388889;12.13333333;Ивановка;Амурская область;Ивановка;Амурская;10628416101;6360;741649;676930;10.0;0.0;UTC+9
182;https://ru.wikipedia.org/wiki/%D0%9A%D0%BE%D0%BD%D1%81%D1%82%D0%B0%D0%BD%D1%82%D0%B8%D0%BD%D0%BE%D0%B2%D0%BA%D0%B0_(%D0%90%D0%BC%D1%83%D1%80%D1%81%D0%BA%D0%B0%D1%8F_%D0%BE%D0%B1%D0%BB%D0%B0%D1%81%D1%82%D1%8C);49.6175;12.13305556;Константиновка;Амурская область;Константиновка;Амурская;10630424101;5335;;676980;10.0;0.0;UTC+9
183;https://ru.wikipedia.org/wiki/%D0%92%D0%BE%D0%B7%D0%B6%D0%B0%D0%B5%D0%B2%D0%BA%D0%B0;50.74166667;12.14555556;Возжаевка;Амурская область;Возжаевка;Амурская;10608414101;5103;;676810;10.0;0.0;UTC+9
184;https://ru.wikipedia.org/wiki/%D0%A4%D0%B5%D0%B2%D1%80%D0%B0%D0%BB%D1%8C%D1%81%D0%BA;52.45194444;13.01472222;Февральск;Амурская область;Февральск;Амурская;10645189051;4782;+7 41646[уточнить];676572;10.0;0.0;UTC+9
185;https://ru.wikipedia.org/wiki/%D0%95%D1%80%D0%BE%D1%84%D0%B5%D0%B9_%D0%9F%D0%B0%D0%B2%D0%BB%D0%BE%D0%B2%D0%B8%D1%87;53.96333333;12.0325;Ерофей Павлович;Амурская область;Ерофей Павлович;Амурская;10649155051;4648;741654;676000;10.0;0.0;UTC+9
186;https://ru.wikipedia.org/wiki/%D0%A2%D0%B0%D0%BB%D0%B0%D0%BA%D0%B0%D0%BD_(%D0%90%D0%BC%D1%83%D1%80%D1%81%D0%BA%D0%B0%D1%8F_%D0%BE%D0%B1%D0%BB%D0%B0%D1%81%D1%82%D1%8C);50.26277778;13.00444444;Талакан;Амурская область;Талакан;Амурская;10615172051;4377;+7 41 634;676730, 676731;10.0;0.0;UTC+9
187;https://ru.wikipedia.org/wiki/%D0%91%D1%83%D1%80%D0%B5%D1%8F_(%D0%90%D0%BC%D1%83%D1%80%D1%81%D0%BA%D0%B0%D1%8F_%D0%BE%D0%B1%D0%BB%D0%B0%D1%81%D1%82%D1%8C);49.78333333;12.16277778;Бурея;Амурская область;Бурея;Амурская;10615157051;4281;741634;;10.0;0.0;UTC+9
188;https://ru.wikipedia.org/wiki/%D0%9D%D0%B0%D1%80%D1%8C%D1%8F%D0%BD-%D0%9C%D0%B0%D1%80;67.63777778;53.00666667;Нарьян-Мар;Ненецкий АО;Нарьян-Мар;Ненецкий;11851000001;24654;781853;;11100.0;0.0;UTC+3
189;https://ru.wikipedia.org/wiki/%D0%9F%D0%BE%D1%81%D1%91%D0%BB%D0%BE%D0%BA_%D0%98%D1%81%D0%BA%D0%B0%D1%82%D0%B5%D0%BB%D0%B5%D0%B9;67.66666667;53.13333333;посёлок Искателей;Ненецкий АО;поселок Искателей;Ненецкий;11811111051;7178;781853;;11100.0;0.0;UTC+3
190;https://ru.wikipedia.org/wiki/%D0%9A%D1%80%D0%B0%D1%81%D0%BD%D0%BE%D0%B5_(%D0%9D%D0%B5%D0%BD%D0%B5%D1%86%D0%BA%D0%B8%D0%B9_%D0%B0%D0%B2%D1%82%D0%BE%D0%BD%D0%BE%D0%BC%D0%BD%D1%8B%D0%B9_%D0%BE%D0%BA%D1%80%D1%83%D0%B3);67.83555556;53.59694444;Красное;Ненецкий АО;Красное;Ненецкий;11811461101;1625;781853;166715;11100.0;0.0;UTC+3
191;https://ru.wikipedia.org/wiki/%D0%9D%D0%B5%D1%81%D1%8C_(%D1%81%D0%B5%D0%BB%D0%BE);66.60166667;44.67583333;Несь;Ненецкий АО;Несь;Ненецкий;11811443101;1368;781857;166737;11100.0;0.0;UTC+3
192;https://ru.wikipedia.org/wiki/%D0%9D%D0%B5%D0%BB%D1%8C%D0%BC%D0%B8%D0%BD-%D0%9D%D0%BE%D1%81;67.98138889;52.95555556;Нельмин-Нос;Ненецкий АО;Нельмин-Нос;Ненецкий;11811454101;817;781853;166714;11100.0;0.0;UTC+3
193;https://ru.wikipedia.org/wiki/%D0%90%D1%81%D1%82%D1%80%D0%B0%D1%85%D0%B0%D0%BD%D1%8C;46.33333333;48.03333333;Астрахань;Астраханская область;Астрахань;Астраханская;12701000001;532504;+7 8512 (851);;12.0;0.0;UTC+4
194;https://ru.wikipedia.org/wiki/%D0%90%D1%85%D1%82%D1%83%D0%B1%D0%B8%D0%BD%D1%81%D0%BA;48.28333333;46.16666667;Ахтубинск;Астраханская область;Ахтубинск;Астраханская;12605101001;37883;785141;;12.0;0.0;UTC+4
195;https://ru.wikipedia.org/wiki/%D0%97%D0%BD%D0%B0%D0%BC%D0%B5%D0%BD%D1%81%D0%BA_(%D0%90%D1%81%D1%82%D1%80%D0%B0%D1%85%D0%B0%D0%BD%D1%81%D0%BA%D0%B0%D1%8F_%D0%BE%D0%B1%D0%BB%D0%B0%D1%81%D1%82%D1%8C);48.58333333;45.75;Знаменск;Астраханская область;Знаменск;Астраханская;12719000001;26934;785140;416540;12.0;0.0;UTC+4
196;https://ru.wikipedia.org/wiki/%D0%A5%D0%B0%D1%80%D0%B0%D0%B1%D0%B0%D0%BB%D0%B8;47.4;47.25;Харабали;Астраханская область;Харабали;Астраханская;12645101001;18031;785148;416010;12.0;0.0;UTC+4
197;https://ru.wikipedia.org/wiki/%D0%9A%D0%B0%D0%BC%D1%8B%D0%B7%D1%8F%D0%BA;46.11555556;48.07694444;Камызяк;Астраханская область;Камызяк;Астраханская;12625101001;16077;785145;;12.0;0.0;UTC+4
198;https://ru.wikipedia.org/wiki/%D0%9A%D1%80%D0%B0%D1%81%D0%BD%D1%8B%D0%B9_%D0%AF%D1%80_(%D0%90%D1%81%D1%82%D1%80%D0%B0%D1%85%D0%B0%D0%BD%D1%81%D0%BA%D0%B0%D1%8F_%D0%BE%D0%B1%D0%BB%D0%B0%D1%81%D1%82%D1%8C);46.53416667;48.34194444;Красный Яр;Астраханская область;Красный Яр;Астраханская;12630436101;12214;;416150;12.0;0.0;UTC+4
199;https://ru.wikipedia.org/wiki/%D0%9D%D0%B0%D1%80%D0%B8%D0%BC%D0%B0%D0%BD%D0%BE%D0%B2_(%D0%B3%D0%BE%D1%80%D0%BE%D0%B4);46.68333333;47.85;Нариманов;Астраханская область;Нариманов;Астраханская;12640101001;11118;785171;416111;12.0;0.0;UTC+4
200;https://ru.wikipedia.org/wiki/%D0%92%D0%BE%D0%BB%D0%BE%D0%B4%D0%B0%D1%80%D1%81%D0%BA%D0%B8%D0%B9_(%D0%90%D1%81%D1%82%D1%80%D0%B0%D1%85%D0%B0%D0%BD%D1%81%D0%BA%D0%B0%D1%8F_%D0%BE%D0%B1%D0%BB%D0%B0%D1%81%D1%82%D1%8C);46.39972222;48.53888889;Володарский;Астраханская область;Володарский;Астраханская;12610468101;10136;+7 851 42;;12.0;0.0;UTC+4
201;https://ru.wikipedia.org/wiki/%D0%98%D0%BA%D1%80%D1%8F%D0%BD%D0%BE%D0%B5;46.09027778;47.73055556;Икряное;Астраханская область;Икряное;Астраханская;12620420101;10036;785144;416370;12.0;0.0;UTC+4
202;https://ru.wikipedia.org/wiki/%D0%9B%D0%B8%D0%BC%D0%B0%D0%BD_(%D0%90%D1%81%D1%82%D1%80%D0%B0%D1%85%D0%B0%D0%BD%D1%81%D0%BA%D0%B0%D1%8F_%D0%BE%D0%B1%D0%BB%D0%B0%D1%81%D1%82%D1%8C);45.785;47.23027778;Лиман;Астраханская область;Лиман;Астраханская;12635151051;8661;+7 851 47;;12.0;0.0;UTC+4
203;https://ru.wikipedia.org/wiki/%D0%92%D0%B5%D1%80%D1%85%D0%BD%D0%B8%D0%B9_%D0%91%D0%B0%D1%81%D0%BA%D1%83%D0%BD%D1%87%D0%B0%D0%BA;48.23027778;46.71833333;Верхний Баскунчак;Астраханская область;Верхний Баскунчак;Астраханская;12605157051;7860;+7 851 41;416530;12.0;0.0;UTC+4
204;https://ru.wikipedia.org/wiki/%D0%A7%D1%91%D1%80%D0%BD%D1%8B%D0%B9_%D0%AF%D1%80;48.06027778;46.10861111;Чёрный Яр;Астраханская область;Черный Яр;Астраханская;12650436101;7621;;163503;12.0;0.0;UTC+4
205;https://ru.wikipedia.org/wiki/%D0%95%D0%BD%D0%BE%D1%82%D0%B0%D0%B5%D0%B2%D0%BA%D0%B0;47.24361111;47.03277778;Енотаевка;Астраханская область;Енотаевка;Астраханская;12615416101;7616;785143;416200;12.0;0.0;UTC+4
206;https://ru.wikipedia.org/wiki/%D0%9A%D1%80%D0%B0%D1%81%D0%BD%D1%8B%D0%B5_%D0%91%D0%B0%D1%80%D1%80%D0%B8%D0%BA%D0%B0%D0%B4%D1%8B;46.205;47.8575;Красные Баррикады;Астраханская область;Красные Баррикады;Астраханская;12620162051;6462;+7 851 14;416356;12.0;0.0;UTC+4
207;https://ru.wikipedia.org/wiki/%D0%A1%D1%82%D0%B0%D1%80%D0%BE%D0%BA%D1%83%D1%87%D0%B5%D1%80%D0%B3%D0%B0%D0%BD%D0%BE%D0%B2%D0%BA%D0%B0;46.325;47.95805556;Старокучергановка;Астраханская область;Старокучергановка;Астраханская;12640456101;6343;+7 +7 85171;416101;12.0;0.0;UTC+4
208;https://ru.wikipedia.org/wiki/%D0%9A%D0%B0%D0%BF%D1%83%D1%81%D1%82%D0%B8%D0%BD_%D0%AF%D1%80_(%D1%81%D0%B5%D0%BB%D0%BE);48.57583333;45.76555556;Капустин Яр;Астраханская область;Капустин Яр;Астраханская;12605414101;5724;;;12.0;0.0;UTC+4
209;https://ru.wikipedia.org/wiki/%D0%9D%D0%B0%D1%87%D0%B0%D0%BB%D0%BE%D0%B2%D0%BE;46.33861111;48.19972222;Началово;Астраханская область;Началово;Астраханская;12642432101;5451;+7 85172[2];416450;12.0;0.0;UTC+4
210;https://ru.wikipedia.org/wiki/%D0%A1%D0%B0%D1%81%D1%8B%D0%BA%D0%BE%D0%BB%D0%B8;47.54972222;46.99916667;Сасыколи;Астраханская область;Сасыколи;Астраханская;12645420101;5224;785148;416013;12.0;0.0;UTC+4
211;https://ru.wikipedia.org/wiki/%D0%9D%D0%B8%D0%BA%D0%BE%D0%BB%D1%8C%D1%81%D0%BA%D0%BE%D0%B5_(%D0%95%D0%BD%D0%BE%D1%82%D0%B0%D0%B5%D0%B2%D1%81%D0%BA%D0%B8%D0%B9_%D1%80%D0%B0%D0%B9%D0%BE%D0%BD);47.75972222;46.4;Никольское;Астраханская область;Никольское;Астраханская;12615433101;5042;+7 85143[4];416222[5];12.0;0.0;UTC+4
212;https://ru.wikipedia.org/wiki/%D0%91%D0%B5%D0%BB%D0%B3%D0%BE%D1%80%D0%BE%D0%B4;50.6;36.6;Белгород;Белгородская область;Белгород;Белгородская;14701000001;391135;74722;;14.0;0.0;UTC+3
213;https://ru.wikipedia.org/wiki/%D0%A1%D1%82%D0%B0%D1%80%D1%8B%D0%B9_%D0%9E%D1%81%D0%BA%D0%BE%D0%BB;51.29805556;37.835;Старый Оскол;Белгородская область;Старый Оскол;Белгородская;14740000001;223360;74725;;14.0;0.0;UTC+3
214;https://ru.wikipedia.org/wiki/%D0%93%D1%83%D0%B1%D0%BA%D0%B8%D0%BD_(%D0%B3%D0%BE%D1%80%D0%BE%D0%B4);51.28333333;37.55;Губкин;Белгородская область;Губкин;Белгородская;14730000001;86999;747241;;14.0;0.0;UTC+3
215;https://ru.wikipedia.org/wiki/%D0%A8%D0%B5%D0%B1%D0%B5%D0%BA%D0%B8%D0%BD%D0%BE;50.40777778;36.89694444;Шебекино;Белгородская область;Шебекино;Белгородская;14656101001;42465;747248;309290;14.0;0.0;UTC+3
216;https://ru.wikipedia.org/wiki/%D0%90%D0%BB%D0%B5%D0%BA%D1%81%D0%B5%D0%B5%D0%B2%D0%BA%D0%B0_(%D0%B3%D0%BE%D1%80%D0%BE%D0%B4,_%D0%91%D0%B5%D0%BB%D0%B3%D0%BE%D1%80%D0%BE%D0%B4%D1%81%D0%BA%D0%B0%D1%8F_%D0%BE%D0%B1%D0%BB%D0%B0%D1%81%D1%82%D1%8C);50.63333333;38.68333333;Алексеевка;Белгородская область;Алексеевка;Белгородская;14605101001;38447;747234;309850;14.0;0.0;UTC+3
217;https://ru.wikipedia.org/wiki/%D0%92%D0%B0%D0%BB%D1%83%D0%B9%D0%BA%D0%B8;50.18333333;38.11666667;Валуйки;Белгородская область;Валуйки;Белгородская;14620101001;34679;747236;309990;14.0;0.0;UTC+3
218;https://ru.wikipedia.org/wiki/%D0%A1%D1%82%D1%80%D0%BE%D0%B8%D1%82%D0%B5%D0%BB%D1%8C_(%D0%B3%D0%BE%D1%80%D0%BE%D0%B4);50.78333333;36.48333333;Строитель;Белгородская область;Строитель;Белгородская;14658101001;24526;747244;309070;14.0;0.0;UTC+3
219;https://ru.wikipedia.org/wiki/%D0%9D%D0%BE%D0%B2%D1%8B%D0%B9_%D0%9E%D1%81%D0%BA%D0%BE%D0%BB;50.76666667;37.86666667;Новый Оскол;Белгородская область;Новый Оскол;Белгородская;14644101001;18856;747233;309640;14.0;0.0;UTC+3
220;https://ru.wikipedia.org/wiki/%D0%A0%D0%B0%D0%B7%D1%83%D0%BC%D0%BD%D0%BE%D0%B5;50.53472222;36.6925;Разумное;Белгородская область;Разумное;Белгородская;14610165051;18849;7472;;14.0;0.0;UTC+3
221;https://ru.wikipedia.org/wiki/%D0%A7%D0%B5%D1%80%D0%BD%D1%8F%D0%BD%D0%BA%D0%B0;50.94055556;37.80472222;Чернянка;Белгородская область;Чернянка;Белгородская;14654151051;14909;747232;;14.0;0.0;UTC+3
222;https://ru.wikipedia.org/wiki/%D0%91%D0%BE%D1%80%D0%B8%D1%81%D0%BE%D0%B2%D0%BA%D0%B0_(%D0%91%D0%B5%D0%BB%D0%B3%D0%BE%D1%80%D0%BE%D0%B4%D1%81%D0%BA%D0%B0%D1%8F_%D0%BE%D0%B1%D0%BB%D0%B0%D1%81%D1%82%D1%8C);50.60416667;36.01555556;Борисовка;Белгородская область;Борисовка;Белгородская;14615151051;13727;+7 472 46;;14.0;0.0;UTC+3
223;https://ru.wikipedia.org/wiki/%D0%A0%D0%BE%D0%B2%D0%B5%D0%BD%D1%8C%D0%BA%D0%B8_(%D0%BF%D0%BE%D1%81%D1%91%D0%BB%D0%BE%D0%BA_%D0%B3%D0%BE%D1%80%D0%BE%D0%B4%D1%81%D0%BA%D0%BE%D0%B3%D0%BE_%D1%82%D0%B8%D0%BF%D0%B0);49.91861111;38.90361111;Ровеньки;Белгородская область;Ровеньки;Белгородская;14650151051;10824;747238;309740;14.0;0.0;UTC+3
224;https://ru.wikipedia.org/wiki/%D0%92%D0%BE%D0%BB%D0%BE%D0%BA%D0%BE%D0%BD%D0%BE%D0%B2%D0%BA%D0%B0;50.48388889;37.87138889;Волоконовка;Белгородская область;Волоконовка;Белгородская;14630151051;10760;+7 472 35;309650;14.0;0.0;UTC+3
225;https://ru.wikipedia.org/wiki/%D0%A1%D0%B5%D0%B2%D0%B5%D1%80%D0%BD%D1%8B%D0%B9_(%D0%91%D0%B5%D0%BB%D0%B3%D0%BE%D1%80%D0%BE%D0%B4%D1%81%D0%BA%D0%B0%D1%8F_%D0%BE%D0%B1%D0%BB%D0%B0%D1%81%D1%82%D1%8C);50.67555556;36.55694444;Северный;Белгородская область;Северный;Белгородская;14610167051;10543;7472;;14.0;0.0;UTC+3
226;https://ru.wikipedia.org/wiki/%D0%A0%D0%B0%D0%BA%D0%B8%D1%82%D0%BD%D0%BE%D0%B5_(%D0%91%D0%B5%D0%BB%D0%B3%D0%BE%D1%80%D0%BE%D0%B4%D1%81%D0%BA%D0%B0%D1%8F_%D0%BE%D0%B1%D0%BB%D0%B0%D1%81%D1%82%D1%8C);50.83416667;35.83583333;Ракитное;Белгородская область;Ракитное;Белгородская;14648151051;10504;747245;309310;14.0;0.0;UTC+3
227;https://ru.wikipedia.org/wiki/%D0%9F%D1%80%D0%BE%D1%85%D0%BE%D1%80%D0%BE%D0%B2%D0%BA%D0%B0;51.03333333;36.73333333;Прохоровка;Белгородская область;Прохоровка;Белгородская;14646151051;9081;747242;309000;14.0;0.0;UTC+3
228;https://ru.wikipedia.org/wiki/%D0%9F%D1%80%D0%BE%D0%BB%D0%B5%D1%82%D0%B0%D1%80%D1%81%D0%BA%D0%B8%D0%B9_(%D0%91%D0%B5%D0%BB%D0%B3%D0%BE%D1%80%D0%BE%D0%B4%D1%81%D0%BA%D0%B0%D1%8F_%D0%BE%D0%B1%D0%BB%D0%B0%D1%81%D1%82%D1%8C);50.79055556;35.77277778;Пролетарский;Белгородская область;Пролетарский;Белгородская;14648170051;9019;747245;309300;14.0;0.0;UTC+3
229;https://ru.wikipedia.org/wiki/%D0%9C%D0%B0%D0%B9%D1%81%D0%BA%D0%B8%D0%B9_(%D0%91%D0%B5%D0%BB%D0%B3%D0%BE%D1%80%D0%BE%D0%B4%D1%81%D0%BA%D0%B0%D1%8F_%D0%BE%D0%B1%D0%BB%D0%B0%D1%81%D1%82%D1%8C);50.52277778;36.45611111;Майский;Белгородская область;Майский;Белгородская;14610450101;8748;74722;308503;14.0;0.0;UTC+3
230;https://ru.wikipedia.org/wiki/%D0%94%D1%83%D0%B1%D0%BE%D0%B2%D0%BE%D0%B5_(%D0%91%D0%B5%D0%BB%D0%B3%D0%BE%D1%80%D0%BE%D0%B4%D1%81%D0%BA%D0%B0%D1%8F_%D0%BE%D0%B1%D0%BB%D0%B0%D1%81%D1%82%D1%8C);50.53861111;36.58611111;Дубовое;Белгородская область;Дубовое;Белгородская;14610476101;8627;;308501;14.0;0.0;UTC+3
231;https://ru.wikipedia.org/wiki/%D0%9A%D1%80%D0%B0%D1%81%D0%BD%D0%B0%D1%8F_%D0%AF%D1%80%D1%83%D0%B3%D0%B0;50.8;35.65;Красная Яруга;Белгородская область;Красная Яруга;Белгородская;14643151051;8168;747263;309420;14.0;0.0;UTC+3
232;https://ru.wikipedia.org/wiki/%D0%A1%D1%82%D1%80%D0%B5%D0%BB%D0%B5%D1%86%D0%BA%D0%BE%D0%B5_(%D0%91%D0%B5%D0%BB%D0%B3%D0%BE%D1%80%D0%BE%D0%B4%D1%81%D0%BA%D0%B8%D0%B9_%D1%80%D0%B0%D0%B9%D0%BE%D0%BD);50.64166667;36.47;Стрелецкое;Белгородская область;Стрелецкое;Белгородская;14610472101;8010;;308511;14.0;0.0;UTC+3
233;https://ru.wikipedia.org/wiki/%D0%A2%D0%BE%D0%BC%D0%B0%D1%80%D0%BE%D0%B2%D0%BA%D0%B0;50.68361111;36.23111111;Томаровка;Белгородская область;Томаровка;Белгородская;14658160051;7914;747244;309085;14.0;0.0;UTC+3
234;https://ru.wikipedia.org/wiki/%D0%98%D0%B2%D0%BD%D1%8F;51.05;36.11666667;Ивня;Белгородская область;Ивня;Белгородская;14638151051;7403;747243;309110, 309111;14.0;0.0;UTC+3
235;https://ru.wikipedia.org/wiki/%D0%91%D0%B8%D1%80%D1%8E%D1%87_(%D0%B3%D0%BE%D1%80%D0%BE%D0%B4);50.65;38.4;Бирюч;Белгородская область;Бирюч;Белгородская;14642151001;7205;747247;309920,309921;14.0;0.0;UTC+3
236;https://ru.wikipedia.org/wiki/%D0%A3%D1%80%D0%B0%D0%B7%D0%BE%D0%B2%D0%BE_(%D0%91%D0%B5%D0%BB%D0%B3%D0%BE%D1%80%D0%BE%D0%B4%D1%81%D0%BA%D0%B0%D1%8F_%D0%BE%D0%B1%D0%BB%D0%B0%D1%81%D1%82%D1%8C);50.07861111;38.04805556;Уразово;Белгородская область;Уразово;Белгородская;14620160051;6931;+7 472 36;309970;14.0;0.0;UTC+3
237;https://ru.wikipedia.org/wiki/%D0%9E%D0%BA%D1%82%D1%8F%D0%B1%D1%80%D1%8C%D1%81%D0%BA%D0%B8%D0%B9_(%D0%91%D0%B5%D0%BB%D0%B3%D0%BE%D1%80%D0%BE%D0%B4%D1%81%D0%BA%D0%B8%D0%B9_%D1%80%D0%B0%D0%B9%D0%BE%D0%BD);50.43555556;36.35583333;Октябрьский;Белгородская область;Октябрьский;Белгородская;14610160051;6893;74722;;14.0;0.0;UTC+3
238;https://ru.wikipedia.org/wiki/%D0%92%D0%B5%D0%B9%D0%B4%D0%B5%D0%BB%D0%B5%D0%B2%D0%BA%D0%B0;50.15361111;38.45;Вейделевка;Белгородская область;Вейделевка;Белгородская;14625151051;6431;+7 472 37;309720;14.0;0.0;UTC+3
239;https://ru.wikipedia.org/wiki/%D0%93%D1%80%D0%B0%D0%B9%D0%B2%D0%BE%D1%80%D0%BE%D0%BD;50.48333333;35.66666667;Грайворон;Белгородская область;Грайворон;Белгородская;14632101001;6404;747261;309372;14.0;0.0;UTC+3
240;https://ru.wikipedia.org/wiki/%D0%A2%D1%80%D0%BE%D0%B8%D1%86%D0%BA%D0%B8%D0%B9_(%D0%91%D0%B5%D0%BB%D0%B3%D0%BE%D1%80%D0%BE%D0%B4%D1%81%D0%BA%D0%B0%D1%8F_%D0%BE%D0%B1%D0%BB%D0%B0%D1%81%D1%82%D1%8C);51.36444444;37.50194444;Троицкий;Белгородская область;Троицкий;Белгородская;14730000126;6192;747241;309145;14.0;0.0;UTC+3
241;https://ru.wikipedia.org/wiki/%D0%9C%D0%B0%D1%81%D0%BB%D0%BE%D0%B2%D0%B0_%D0%9F%D1%80%D0%B8%D1%81%D1%82%D0%B0%D0%BD%D1%8C;50.46222222;36.74027778;Маслова Пристань;Белгородская область;Маслова Пристань;Белгородская;14656462051;6048;747248;309276;14.0;0.0;UTC+3
242;https://ru.wikipedia.org/wiki/%D0%9D%D0%BE%D0%B2%D0%B0%D1%8F_%D0%A2%D0%B0%D0%B2%D0%BE%D0%BB%D0%B6%D0%B0%D0%BD%D0%BA%D0%B0;50.35388889;36.8275;Новая Таволжанка;Белгородская область;Новая Таволжанка;Белгородская;14656480101;5324;747248;309255;14.0;0.0;UTC+3
243;https://ru.wikipedia.org/wiki/%D0%A2%D0%B0%D0%B2%D1%80%D0%BE%D0%B2%D0%BE_(%D0%91%D0%B5%D0%BB%D0%B3%D0%BE%D1%80%D0%BE%D0%B4%D1%81%D0%BA%D0%B0%D1%8F_%D0%BE%D0%B1%D0%BB%D0%B0%D1%81%D1%82%D1%8C);50.505;36.57638889;Таврово;Белгородская область;Таврово;Белгородская;14610474101;5192;74722;308504;14.0;0.0;UTC+3
244;https://ru.wikipedia.org/wiki/%D0%93%D0%BE%D0%BB%D0%BE%D0%B2%D1%87%D0%B8%D0%BD%D0%BE_(%D0%91%D0%B5%D0%BB%D0%B3%D0%BE%D1%80%D0%BE%D0%B4%D1%81%D0%BA%D0%B0%D1%8F_%D0%BE%D0%B1%D0%BB%D0%B0%D1%81%D1%82%D1%8C);50.53638889;35.80833333;Головчино;Белгородская область;Головчино;Белгородская;14632424101;4716;;309377;14.0;0.0;UTC+3
245;https://ru.wikipedia.org/wiki/%D0%9F%D1%8F%D1%82%D0%BD%D0%B8%D1%86%D0%BA%D0%BE%D0%B5_(%D0%91%D0%B5%D0%BB%D0%B3%D0%BE%D1%80%D0%BE%D0%B4%D1%81%D0%BA%D0%B0%D1%8F_%D0%BE%D0%B1%D0%BB%D0%B0%D1%81%D1%82%D1%8C);50.42361111;37.85388889;Пятницкое;Белгородская область;Пятницкое;Белгородская;14630162051;4215;747235;;14.0;0.0;UTC+3
246;https://ru.wikipedia.org/wiki/%D0%97%D0%B0%D1%81%D0%BE%D1%81%D0%BD%D0%B0_(%D0%91%D0%B5%D0%BB%D0%B3%D0%BE%D1%80%D0%BE%D0%B4%D1%81%D0%BA%D0%B0%D1%8F_%D0%BE%D0%B1%D0%BB%D0%B0%D1%81%D1%82%D1%8C);50.62694444;38.38777778;Засосна;Белгородская область;Засосна;Белгородская;14642424101;4213;747247;309926;14.0;0.0;UTC+3
247;https://ru.wikipedia.org/wiki/%D0%9B%D0%B8%D0%B2%D0%B5%D0%BD%D0%BA%D0%B0_(%D0%91%D0%B5%D0%BB%D0%B3%D0%BE%D1%80%D0%BE%D0%B4%D1%81%D0%BA%D0%B0%D1%8F_%D0%BE%D0%B1%D0%BB%D0%B0%D1%81%D1%82%D1%8C);50.45;38.3;Ливенка;Белгородская область;Ливенка;Белгородская;14642436101;3870;747247;309900;14.0;0.0;UTC+3
248;https://ru.wikipedia.org/wiki/%D0%A1%D0%BA%D0%BE%D1%80%D0%BE%D0%B4%D0%BD%D0%BE%D0%B5_(%D0%91%D0%B5%D0%BB%D0%B3%D0%BE%D1%80%D0%BE%D0%B4%D1%81%D0%BA%D0%B0%D1%8F_%D0%BE%D0%B1%D0%BB%D0%B0%D1%81%D1%82%D1%8C);51.06777778;37.23444444;Скородное;Белгородская область;Скородное;Белгородская;14730000331;3622;747241;309163;14.0;0.0;UTC+3
249;https://ru.wikipedia.org/w/index.php?title=%D0%9F%D1%83%D1%88%D0%BA%D0%B0%D1%80%D0%BD%D0%BE%D0%B5_(%D0%91%D0%B5%D0%BB%D0%B3%D0%BE%D1%80%D0%BE%D0%B4%D1%81%D0%BA%D0%B8%D0%B9_%D1%80%D0%B0%D0%B9%D0%BE%D0%BD)&action=edit&redlink=1;0.0;0.0;Пушкарное;Белгородская область;Пушкарное;Белгородская;14610101111;3332;;;14.0;0.0;
250;https://ru.wikipedia.org/wiki/%D0%91%D0%B5%D1%85%D1%82%D0%B5%D0%B5%D0%B2%D0%BA%D0%B0_(%D0%9A%D0%BE%D1%80%D0%BE%D1%87%D0%B0%D0%BD%D1%81%D0%BA%D0%B8%D0%B9_%D1%80%D0%B0%D0%B9%D0%BE%D0%BD);50.8075;37.21638889;Бехтеевка;Белгородская область;Бехтеевка;Белгородская;14640416101;3290;747231;309218 [2];14.0;0.0;UTC+3
251;https://ru.wikipedia.org/wiki/%D0%91%D0%B5%D1%81%D1%81%D0%BE%D0%BD%D0%BE%D0%B2%D0%BA%D0%B0_(%D0%91%D0%B5%D0%BB%D0%B3%D0%BE%D1%80%D0%BE%D0%B4%D1%81%D0%BA%D0%B0%D1%8F_%D0%BE%D0%B1%D0%BB%D0%B0%D1%81%D1%82%D1%8C);50.52555556;36.30027778;Бессоновка;Белгородская область;Бессоновка;Белгородская;14610408101;3065;;308590;14.0;0.0;UTC+3
252;https://ru.wikipedia.org/wiki/%D0%A0%D0%BE%D0%B3%D0%BE%D0%B2%D0%B0%D1%82%D0%BE%D0%B5;51.22388889;38.37083333;Роговатое;Белгородская область;Роговатое;Белгородская;14740000366;3001;74725;;14.0;0.0;UTC+3
253;https://ru.wikipedia.org/wiki/%D0%91%D1%80%D1%8F%D0%BD%D1%81%D0%BA;53.25;34.36666667;Брянск;Брянская область;Брянск;Брянская;15701000001;406553;74832;241000;15.0;0.0;UTC+3
254;https://ru.wikipedia.org/wiki/%D0%9A%D0%BB%D0%B8%D0%BD%D1%86%D1%8B;52.75277778;32.23611111;Клинцы;Брянская область;Клинцы;Брянская;15715000001;62832;748336;;15.0;0.0;UTC+3
255;https://ru.wikipedia.org/wiki/%D0%9D%D0%BE%D0%B2%D0%BE%D0%B7%D1%8B%D0%B1%D0%BA%D0%BE%D0%B2;52.53333333;31.93333333;Новозыбков;Брянская область;Новозыбков;Брянская;15720000001;40476;748343;;15.0;0.0;UTC+3
256;https://ru.wikipedia.org/wiki/%D0%94%D1%8F%D1%82%D1%8C%D0%BA%D0%BE%D0%B2%D0%BE;53.6;34.33333333;Дятьково;Брянская область;Дятьково;Брянская;15616104001;27028;748333;;15.0;0.0;UTC+3
257;https://ru.wikipedia.org/wiki/%D0%A3%D0%BD%D0%B5%D1%87%D0%B0;52.85;32.68333333;Унеча;Брянская область;Унеча;Брянская;15658101001;23971;748351;243300;15.0;0.0;UTC+3
258;https://ru.wikipedia.org/wiki/%D0%A1%D1%82%D0%B0%D1%80%D0%BE%D0%B4%D1%83%D0%B1;52.58333333;32.76666667;Стародуб;Брянская область;Стародуб;Брянская;15750000001;18824;748348;243240;15.0;0.0;UTC+3
259;https://ru.wikipedia.org/wiki/%D0%9A%D0%B0%D1%80%D0%B0%D1%87%D0%B5%D0%B2;53.11666667;34.98333333;Карачев;Брянская область;Карачев;Брянская;15624101001;17981;748335;242500;15.0;0.0;UTC+3
260;https://ru.wikipedia.org/wiki/%D0%96%D1%83%D0%BA%D0%BE%D0%B2%D0%BA%D0%B0_(%D0%B3%D0%BE%D1%80%D0%BE%D0%B4);53.53333333;33.73333333;Жуковка;Брянская область;Жуковка;Брянская;15622101001;16953;748334;242700, 242702;15.0;0.0;UTC+3
261;https://ru.wikipedia.org/wiki/%D0%A1%D0%B5%D0%BB%D1%8C%D1%86%D0%BE_(%D0%B3%D0%BE%D1%80%D0%BE%D0%B4);53.36944444;34.1;Сельцо;Брянская область;Сельцо;Брянская;15725000001;16664;74832;241550;15.0;0.0;UTC+3
262;https://ru.wikipedia.org/wiki/%D0%9F%D0%BE%D1%87%D0%B5%D0%BF;52.93333333;33.45;Почеп;Брянская область;Почеп;Брянская;15644101001;16663;748345;243400;15.0;0.0;UTC+3
263;https://ru.wikipedia.org/wiki/%D0%9D%D0%B0%D0%B2%D0%BB%D1%8F_(%D0%91%D1%80%D1%8F%D0%BD%D1%81%D0%BA%D0%B0%D1%8F_%D0%BE%D0%B1%D0%BB%D0%B0%D1%81%D1%82%D1%8C);52.82805556;34.49888889;Навля;Брянская область;Навля;Брянская;15638151051;14589;748342;242130;15.0;0.0;UTC+3
264;https://ru.wikipedia.org/wiki/%D0%A2%D1%80%D1%83%D0%B1%D1%87%D0%B5%D0%B2%D1%81%D0%BA;52.58333333;33.76666667;Трубчевск;Брянская область;Трубчевск;Брянская;15656101001;13696;748352;242220;15.0;0.0;UTC+3
265;https://ru.wikipedia.org/wiki/%D0%9A%D0%BB%D0%B8%D0%BC%D0%BE%D0%B2%D0%BE_(%D0%91%D1%80%D1%8F%D0%BD%D1%81%D0%BA%D0%B0%D1%8F_%D0%BE%D0%B1%D0%BB%D0%B0%D1%81%D1%82%D1%8C);52.38305556;32.19;Климово;Брянская область;Климово;Брянская;15628151051;13190;748347;243040;15.0;0.0;UTC+3
266;https://ru.wikipedia.org/wiki/%D0%A4%D0%BE%D0%BA%D0%B8%D0%BD%D0%BE_(%D0%91%D1%80%D1%8F%D0%BD%D1%81%D0%BA%D0%B0%D1%8F_%D0%BE%D0%B1%D0%BB%D0%B0%D1%81%D1%82%D1%8C);53.45;34.41666667;Фокино;Брянская область;Фокино;Брянская;15710000001;13065;748333;242610;15.0;0.0;UTC+3
267;https://ru.wikipedia.org/wiki/%D0%9A%D0%BB%D0%B5%D1%82%D0%BD%D1%8F;53.38333333;33.2;Клетня;Брянская область;Клетня;Брянская;15626151051;12640;748338;242820;15.0;0.0;UTC+3
268;https://ru.wikipedia.org/wiki/%D0%A1%D1%83%D1%80%D0%B0%D0%B6;53.01666667;32.4;Сураж;Брянская область;Сураж;Брянская;15654101001;10979;748330;243500;15.0;0.0;UTC+3
269;https://ru.wikipedia.org/wiki/%D0%9B%D0%BE%D0%BA%D0%BE%D1%82%D1%8C_(%D0%91%D1%80%D1%8F%D0%BD%D1%81%D0%BA%D0%B0%D1%8F_%D0%BE%D0%B1%D0%BB%D0%B0%D1%81%D1%82%D1%8C);52.55555556;34.55833333;Локоть;Брянская область;Локоть;Брянская;15604151051;9492;748354;242300;15.0;0.0;UTC+3
270;https://ru.wikipedia.org/wiki/%D0%91%D0%B5%D0%BB%D1%8B%D0%B5_%D0%91%D0%B5%D1%80%D0%B5%D0%B3%D0%B0;53.21111111;34.66111111;Белые Берега;Брянская область;Белые Берега;Брянская;15701000056;8909;;241902;15.0;0.0;UTC+3
271;https://ru.wikipedia.org/wiki/%D0%A1%D1%83%D0%B7%D0%B5%D0%BC%D0%BA%D0%B0;52.31972222;34.07888889;Суземка;Брянская область;Суземка;Брянская;15652151051;8800;748353;242190;15.0;0.0;UTC+3
272;https://ru.wikipedia.org/wiki/%D0%A1%D1%83%D0%BF%D0%BE%D0%BD%D0%B5%D0%B2%D0%BE_(%D0%91%D1%80%D1%8F%D0%BD%D1%81%D0%BA%D0%B0%D1%8F_%D0%BE%D0%B1%D0%BB%D0%B0%D1%81%D1%82%D1%8C);53.20555556;34.31111111;Супонево;Брянская область;Супонево;Брянская;15608463101;8731;;241520;15.0;0.0;UTC+3
273;https://ru.wikipedia.org/wiki/%D0%9F%D0%BE%D0%B3%D0%B0%D1%80;52.55;33.25;Погар;Брянская область;Погар;Брянская;15642151051;8668;748349;243550;15.0;0.0;UTC+3
274;https://ru.wikipedia.org/wiki/%D0%9A%D0%BE%D0%BC%D0%B0%D1%80%D0%B8%D1%87%D0%B8;52.41666667;34.8;Комаричи;Брянская область;Комаричи;Брянская;15632151051;8034;748355;242400;15.0;0.0;UTC+3
275;https://ru.wikipedia.org/wiki/%D0%9C%D0%B3%D0%BB%D0%B8%D0%BD;53.06111111;32.84833333;Мглин;Брянская область;Мглин;Брянская;15636101001;7884;748339;243220;15.0;0.0;UTC+3
276;https://ru.wikipedia.org/wiki/%D0%94%D1%83%D0%B1%D1%80%D0%BE%D0%B2%D0%BA%D0%B0_(%D0%BF%D0%BE%D1%81%D1%91%D0%BB%D0%BE%D0%BA,_%D0%94%D1%83%D0%B1%D1%80%D0%BE%D0%B2%D1%81%D0%BA%D0%B8%D0%B9_%D1%80%D0%B0%D0%B9%D0%BE%D0%BD);53.69138889;33.51166667;Дубровка;Брянская область;Дубровка;Брянская;15612151051;7325;748332;242750;15.0;0.0;UTC+3
277;https://ru.wikipedia.org/wiki/%D0%A1%D0%B5%D0%B2%D1%81%D0%BA;52.15;34.49388889;Севск;Брянская область;Севск;Брянская;15648101001;6723;+7 48356;242440;15.0;0.0;UTC+3
278;https://ru.wikipedia.org/wiki/%D0%98%D0%B2%D0%BE%D1%82;53.67805556;34.19;Ивот;Брянская область;Ивот;Брянская;15616156051;6619;748333;242650;15.0;0.0;UTC+3
279;https://ru.wikipedia.org/wiki/%D0%9B%D1%8E%D0%B1%D0%BE%D1%85%D0%BD%D0%B0;53.5;34.36666667;Любохна;Брянская область;Любохна;Брянская;15616159051;6485;748333;242620;15.0;0.0;UTC+3
280;https://ru.wikipedia.org/wiki/%D0%9A%D1%80%D0%B0%D1%81%D0%BD%D0%B0%D1%8F_%D0%93%D0%BE%D1%80%D0%B0_(%D0%91%D1%80%D1%8F%D0%BD%D1%81%D0%BA%D0%B0%D1%8F_%D0%BE%D0%B1%D0%BB%D0%B0%D1%81%D1%82%D1%8C);53.0;31.6;Красная Гора;Брянская область;Красная Гора;Брянская;15634151051;6414;748346;243160;15.0;0.0;UTC+3
281;https://ru.wikipedia.org/wiki/%D0%91%D0%BE%D0%BB%D1%8C%D1%88%D0%BE%D0%B5_%D0%9F%D0%BE%D0%BB%D0%BF%D0%B8%D0%BD%D0%BE;53.23333333;34.48333333;Большое Полпино;Брянская область;Большое Полпино;Брянская;15701000061;6119;74832;241903;15.0;0.0;UTC+3
282;https://ru.wikipedia.org/wiki/%D0%91%D0%B5%D0%BB%D0%B0%D1%8F_%D0%91%D0%B5%D1%80%D1%91%D0%B7%D0%BA%D0%B0;52.38333333;33.48333333;Белая Берёзка;Брянская область;Белая Березка;Брянская;15656155051;5781;748352;242250;15.0;0.0;UTC+3
283;https://ru.wikipedia.org/wiki/%D0%97%D0%BB%D1%8B%D0%BD%D0%BA%D0%B0;52.43333333;31.73333333;Злынка;Брянская область;Злынка;Брянская;15623101001;5460;748358;243600;15.0;0.0;UTC+3
284;https://ru.wikipedia.org/wiki/%D0%97%D0%B0%D0%B9%D0%BC%D0%B8%D1%89%D0%B5_(%D0%9A%D0%BB%D0%B8%D0%BD%D1%86%D1%8B);52.725;32.23694444;Займище;Брянская область;Займище;Брянская;15715000111;5226;;243111;15.0;0.0;UTC+3
285;https://ru.wikipedia.org/wiki/%D0%9F%D1%83%D1%82%D1%91%D0%B2%D0%BA%D0%B0_(%D0%91%D1%80%D1%8F%D0%BD%D1%81%D0%BA%D0%B0%D1%8F_%D0%BE%D0%B1%D0%BB%D0%B0%D1%81%D1%82%D1%8C);53.2625;34.29583333;Путёвка;Брянская область;Путевка;Брянская;15608455101;5077;74832;241519;15.0;0.0;UTC+3
286;https://ru.wikipedia.org/wiki/%D0%92%D0%BB%D0%B0%D0%B4%D0%B8%D0%BC%D0%B8%D1%80_(%D0%B3%D0%BE%D1%80%D0%BE%D0%B4);56.13333333;40.41666667;Владимир;Владимирская область;Владимир;Владимирская;17701000001;356168;74922;600000;17.0;0.0;UTC+3
287;https://ru.wikipedia.org/wiki/%D0%9A%D0%BE%D0%B2%D1%80%D0%BE%D0%B2;56.36055556;41.31972222;Ковров;Владимирская область;Ковров;Владимирская;17725000001;139280;749232;601900;17.0;0.0;UTC+3
288;https://ru.wikipedia.org/wiki/%D0%9C%D1%83%D1%80%D0%BE%D0%BC;55.5725;42.05138889;Муром;Владимирская область;Муром;Владимирская;17735000001;110070;749234;;17.0;0.0;UTC+3
289;https://ru.wikipedia.org/wiki/%D0%90%D0%BB%D0%B5%D0%BA%D1%81%D0%B0%D0%BD%D0%B4%D1%80%D0%BE%D0%B2_(%D0%B3%D0%BE%D1%80%D0%BE%D0%B4);56.39361111;38.715;Александров;Владимирская область;Александров;Владимирская;17605101001;59787;749244;;17.0;0.0;UTC+3
290;https://ru.wikipedia.org/wiki/%D0%93%D1%83%D1%81%D1%8C-%D0%A5%D1%80%D1%83%D1%81%D1%82%D0%B0%D0%BB%D1%8C%D0%BD%D1%8B%D0%B9;55.61666667;40.65;Гусь-Хрустальный;Владимирская область;Гусь-Хрустальный;Владимирская;17720000001;55973;749241;;17.0;0.0;UTC+3
291;https://ru.wikipedia.org/wiki/%D0%9A%D0%BE%D0%BB%D1%8C%D1%87%D1%83%D0%B3%D0%B8%D0%BD%D0%BE;56.3;39.38333333;Кольчугино;Владимирская область;Кольчугино;Владимирская;17640101001;43784;749245;601780;17.0;0.0;UTC+3
292;https://ru.wikipedia.org/wiki/%D0%92%D1%8F%D0%B7%D0%BD%D0%B8%D0%BA%D0%B8;56.24333333;42.12916667;Вязники;Владимирская область;Вязники;Владимирская;17610101001;37197;749233;;17.0;0.0;UTC+3
293;https://ru.wikipedia.org/wiki/%D0%9A%D0%B8%D1%80%D0%B6%D0%B0%D1%87;56.15;38.86666667;Киржач;Владимирская область;Киржач;Владимирская;17630101001;27439;749237;601010;17.0;0.0;UTC+3
294;https://ru.wikipedia.org/wiki/%D0%AE%D1%80%D1%8C%D0%B5%D0%B2-%D0%9F%D0%BE%D0%BB%D1%8C%D1%81%D0%BA%D0%B8%D0%B9;56.5;39.68333333;Юрьев-Польский;Владимирская область;Юрьев-Польский;Владимирская;17656101001;18737;749246;601800;17.0;0.0;UTC+3
295;https://ru.wikipedia.org/wiki/%D0%A0%D0%B0%D0%B4%D1%83%D0%B6%D0%BD%D1%8B%D0%B9_(%D0%92%D0%BB%D0%B0%D0%B4%D0%B8%D0%BC%D0%B8%D1%80%D1%81%D0%BA%D0%B0%D1%8F_%D0%BE%D0%B1%D0%BB%D0%B0%D1%81%D1%82%D1%8C);55.99777778;40.32972222;Радужный;Владимирская область;Радужный;Владимирская;17737000001;18432;749254;600910;17.0;0.0;UTC+3
296;https://ru.wikipedia.org/wiki/%D0%A1%D0%BE%D0%B1%D0%B8%D0%BD%D0%BA%D0%B0;55.99;40.01666667;Собинка;Владимирская область;Собинка;Владимирская;17650101001;18232;749242;601200;17.0;0.0;UTC+3
297;https://ru.wikipedia.org/wiki/%D0%9F%D0%BE%D0%BA%D1%80%D0%BE%D0%B2_(%D0%B3%D0%BE%D1%80%D0%BE%D0%B4,_%D0%A0%D0%BE%D1%81%D1%81%D0%B8%D1%8F);55.91777778;39.175;Покров;Владимирская область;Покров;Владимирская;17646120001;17519;749243;601120;17.0;0.0;UTC+3
298;https://ru.wikipedia.org/wiki/%D0%9A%D0%B0%D1%80%D0%B0%D0%B1%D0%B0%D0%BD%D0%BE%D0%B2%D0%BE;56.30888889;38.70138889;Карабаново;Владимирская область;Карабаново;Владимирская;17605105001;14839;749244;601640;17.0;0.0;UTC+3
299;https://ru.wikipedia.org/wiki/%D0%9B%D0%B0%D0%BA%D0%B8%D0%BD%D1%81%D0%BA;56.01694444;39.94944444;Лакинск;Владимирская область;Лакинск;Владимирская;17650110001;14711;749242;601240;17.0;0.0;UTC+3
300;https://ru.wikipedia.org/wiki/%D0%9C%D0%B5%D0%BB%D0%B5%D0%BD%D0%BA%D0%B8;55.33333333;41.63333333;Меленки;Владимирская область;Меленки;Владимирская;17642101001;14190;749247;602102;17.0;0.0;UTC+3
301;https://ru.wikipedia.org/wiki/%D0%9F%D0%B5%D1%82%D1%83%D1%88%D0%BA%D0%B8_(%D0%B3%D0%BE%D1%80%D0%BE%D0%B4);55.93333333;39.46666667;Петушки;Владимирская область;Петушки;Владимирская;17646101001;13620;749243;601144;17.0;0.0;UTC+3
302;https://ru.wikipedia.org/wiki/%D0%A1%D1%82%D1%80%D1%83%D0%BD%D0%B8%D0%BD%D0%BE;56.37333333;38.585;Струнино;Владимирская область;Струнино;Владимирская;17605108001;13541;749244;601670;17.0;0.0;UTC+3
303;https://ru.wikipedia.org/wiki/%D0%93%D0%BE%D1%80%D0%BE%D1%85%D0%BE%D0%B2%D0%B5%D1%86;56.20277778;42.6925;Гороховец;Владимирская область;Гороховец;Владимирская;17615101001;13105;749238;;17.0;0.0;UTC+3
304;https://ru.wikipedia.org/wiki/%D0%9A%D0%B0%D0%BC%D0%B5%D1%88%D0%BA%D0%BE%D0%B2%D0%BE;56.34916667;40.99777778;Камешково;Владимирская область;Камешково;Владимирская;17625101001;12743;749248;601300;17.0;0.0;UTC+3
305;https://ru.wikipedia.org/wiki/%D0%A1%D1%83%D0%B4%D0%BE%D0%B3%D0%B4%D0%B0;55.95;40.86666667;Судогда;Владимирская область;Судогда;Владимирская;17652101001;10673;749235;601350;17.0;0.0;UTC+3
306;https://ru.wikipedia.org/wiki/%D0%92%D0%BE%D0%BB%D0%B3%D0%BE%D0%B3%D1%80%D0%B0%D0%B4;48.69916667;44.47333333;Волгоград;Волгоградская область;Волгоград;Волгоградская;18701000001;1015586;78442;;18.0;0.0;UTC+3
307;https://ru.wikipedia.org/wiki/%D0%92%D0%BE%D0%BB%D0%B6%D1%81%D0%BA%D0%B8%D0%B9;48.78333333;44.76666667;Волжский;Волгоградская область;Волжский;Волгоградская;18710000001;326055;78443;;18.0;0.0;UTC+3
308;https://ru.wikipedia.org/wiki/%D0%9A%D0%B0%D0%BC%D1%8B%D1%88%D0%B8%D0%BD;50.08333333;45.4;Камышин;Волгоградская область;Камышин;Волгоградская;18715000001;111775;784457;;18.0;0.0;UTC+3
309;https://ru.wikipedia.org/wiki/%D0%9C%D0%B8%D1%85%D0%B0%D0%B9%D0%BB%D0%BE%D0%B2%D0%BA%D0%B0_(%D0%B3%D0%BE%D1%80%D0%BE%D0%B4);50.06666667;43.23333333;Михайловка;Волгоградская область;Михайловка;Волгоградская;18720000001;58433;784463;;18.0;0.0;UTC+3
310;https://ru.wikipedia.org/wiki/%D0%A3%D1%80%D1%8E%D0%BF%D0%B8%D0%BD%D1%81%D0%BA;50.8;42.01666667;Урюпинск;Волгоградская область;Урюпинск;Волгоградская;18725000001;38267;784442;403120;18.0;0.0;UTC+3
311;https://ru.wikipedia.org/wiki/%D0%A4%D1%80%D0%BE%D0%BB%D0%BE%D0%B2%D0%BE;49.76666667;43.65;Фролово;Волгоградская область;Фролово;Волгоградская;18728000001;37377;784465;403530-403536, 403538, 403540, 403541;18.0;0.0;UTC+3
312;https://ru.wikipedia.org/wiki/%D0%9A%D0%B0%D0%BB%D0%B0%D1%87-%D0%BD%D0%B0-%D0%94%D0%BE%D0%BD%D1%83;48.68333333;43.53333333;Калач-на-Дону;Волгоградская область;Калач-на-Дону;Волгоградская;18616101001;24742;784472;404507;18.0;0.0;UTC+3
313;https://ru.wikipedia.org/wiki/%D0%9A%D0%BE%D1%82%D0%BE%D0%B2%D0%BE;50.31666667;44.8;Котово;Волгоградская область;Котово;Волгоградская;18626101001;22707;784455;403805;18.0;0.0;UTC+3
314;https://ru.wikipedia.org/wiki/%D0%93%D0%BE%D1%80%D0%BE%D0%B4%D0%B8%D1%89%D0%B5_(%D0%92%D0%BE%D0%BB%D0%B3%D0%BE%D0%B3%D1%80%D0%B0%D0%B4%D1%81%D0%BA%D0%B0%D1%8F_%D0%BE%D0%B1%D0%BB%D0%B0%D1%81%D1%82%D1%8C);48.80916667;44.47611111;Городище;Волгоградская область;Городище;Волгоградская;18605151051;21913;784468;403000–403003;18.0;0.0;UTC+3
315;https://ru.wikipedia.org/wiki/%D0%9A%D0%BE%D1%82%D0%B5%D0%BB%D1%8C%D0%BD%D0%B8%D0%BA%D0%BE%D0%B2%D0%BE;47.63333333;43.13333333;Котельниково;Волгоградская область;Котельниково;Волгоградская;18624101001;20384;784476;404352, 404353, 404354;18.0;0.0;UTC+3
316;https://ru.wikipedia.org/wiki/%D0%A1%D1%83%D1%80%D0%BE%D0%B2%D0%B8%D0%BA%D0%B8%D0%BD%D0%BE;48.6;42.85;Суровикино;Волгоградская область;Суровикино;Волгоградская;18653101001;19181;784473;404411 - 404415;18.0;0.0;UTC+3
317;https://ru.wikipedia.org/wiki/%D0%9A%D1%80%D0%B0%D1%81%D0%BD%D0%BE%D1%81%D0%BB%D0%BE%D0%B1%D0%BE%D0%B4%D1%81%D0%BA_(%D0%92%D0%BE%D0%BB%D0%B3%D0%BE%D0%B3%D1%80%D0%B0%D0%B4%D1%81%D0%BA%D0%B0%D1%8F_%D0%BE%D0%B1%D0%BB%D0%B0%D1%81%D1%82%D1%8C);48.7;44.56666667;Краснослободск;Волгоградская область;Краснослободск;Волгоградская;18651107001;17356;784479;404160;18.0;0.0;UTC+3
318;https://ru.wikipedia.org/wiki/%D0%9D%D0%BE%D0%B2%D0%BE%D0%B0%D0%BD%D0%BD%D0%B8%D0%BD%D1%81%D0%BA%D0%B8%D0%B9;50.51666667;42.66666667;Новоаннинский;Волгоградская область;Новоаннинский;Волгоградская;18638101001;16655;784447;403950;18.0;0.0;UTC+3
319;https://ru.wikipedia.org/wiki/%D0%96%D0%B8%D1%80%D0%BD%D0%BE%D0%B2%D1%81%D0%BA;50.98027778;44.78083333;Жирновск;Волгоградская область;Жирновск;Волгоградская;18612101001;16060;784454;;18.0;0.0;UTC+3
320;https://ru.wikipedia.org/wiki/%D0%9B%D0%B5%D0%BD%D0%B8%D0%BD%D1%81%D0%BA_(%D0%92%D0%BE%D0%BB%D0%B3%D0%BE%D0%B3%D1%80%D0%B0%D0%B4%D1%81%D0%BA%D0%B0%D1%8F_%D0%BE%D0%B1%D0%BB%D0%B0%D1%81%D1%82%D1%8C);48.7;45.2;Ленинск;Волгоградская область;Ленинск;Волгоградская;18630101001;15353;784478;404620;18.0;0.0;UTC+3
321;https://ru.wikipedia.org/wiki/%D0%9F%D0%B0%D0%BB%D0%BB%D0%B0%D1%81%D0%BE%D0%B2%D0%BA%D0%B0;50.05;46.88333333;Палласовка;Волгоградская область;Палласовка;Волгоградская;18645101001;15089;784492;404263;18.0;0.0;UTC+3
322;https://ru.wikipedia.org/wiki/%D0%A1%D1%80%D0%B5%D0%B4%D0%BD%D1%8F%D1%8F_%D0%90%D1%85%D1%82%D1%83%D0%B1%D0%B0;48.71666667;44.86666667;Средняя Ахтуба;Волгоградская область;Средняя Ахтуба;Волгоградская;18651151051;14364;;404143;18.0;0.0;UTC+3
323;https://ru.wikipedia.org/wiki/%D0%94%D1%83%D0%B1%D0%BE%D0%B2%D0%BA%D0%B0;49.05;44.83333333;Дубовка;Волгоградская область;Дубовка;Волгоградская;18608101001;14272;784458;404002;18.0;0.0;UTC+3
324;https://ru.wikipedia.org/wiki/%D0%95%D0%BB%D0%B0%D0%BD%D1%8C_(%D0%92%D0%BE%D0%BB%D0%B3%D0%BE%D0%B3%D1%80%D0%B0%D0%B4%D1%81%D0%BA%D0%B0%D1%8F_%D0%BE%D0%B1%D0%BB%D0%B0%D1%81%D1%82%D1%8C);50.94611111;43.73638889;Елань;Волгоградская область;Елань;Волгоградская;18610151051;14081;784452;403732;18.0;0.0;UTC+3
325;https://ru.wikipedia.org/wiki/%D0%9D%D0%B8%D0%BA%D0%BE%D0%BB%D0%B0%D0%B5%D0%B2%D1%81%D0%BA_(%D0%92%D0%BE%D0%BB%D0%B3%D0%BE%D0%B3%D1%80%D0%B0%D0%B4%D1%81%D0%BA%D0%B0%D1%8F_%D0%BE%D0%B1%D0%BB%D0%B0%D1%81%D1%82%D1%8C);50.02722222;45.46305556;Николаевск;Волгоградская область;Николаевск;Волгоградская;18636101001;13998;784494;404030–404033;18.0;0.0;UTC+3
326;https://ru.wikipedia.org/wiki/%D0%9A%D1%80%D0%B0%D1%81%D0%BD%D0%BE%D0%BE%D0%BA%D1%82%D1%8F%D0%B1%D1%80%D1%8C%D1%81%D0%BA%D0%B8%D0%B9_(%D0%92%D0%BE%D0%BB%D0%B6%D1%81%D0%BA%D0%B8%D0%B9);48.87333333;44.75861111;Краснооктябрьский;Волгоградская область;Краснооктябрьский;Волгоградская;18710000011;12863;+7 (8443);404116;18.0;0.0;UTC+3
327;https://ru.wikipedia.org/wiki/%D0%9F%D0%B5%D1%82%D1%80%D0%BE%D0%B2_%D0%92%D0%B0%D0%BB;50.13333333;45.21666667;Петров Вал;Волгоградская область;Петров Вал;Волгоградская;18618103001;12371;784457;403840;18.0;0.0;UTC+3
328;https://ru.wikipedia.org/wiki/%D0%A1%D0%B2%D0%B5%D1%82%D0%BB%D1%8B%D0%B9_%D0%AF%D1%80;48.475;44.76972222;Светлый Яр;Волгоградская область;Светлый Яр;Волгоградская;18649151051;11869;784477;404171;18.0;0.0;UTC+3
329;https://ru.wikipedia.org/wiki/%D0%98%D0%BB%D0%BE%D0%B2%D0%BB%D1%8F_(%D0%92%D0%BE%D0%BB%D0%B3%D0%BE%D0%B3%D1%80%D0%B0%D0%B4%D1%81%D0%BA%D0%B0%D1%8F_%D0%BE%D0%B1%D0%BB%D0%B0%D1%81%D1%82%D1%8C);49.30277778;43.98388889;Иловля;Волгоградская область;Иловля;Волгоградская;18614151051;11418;;403071[2];18.0;0.0;UTC+3
330;https://ru.wikipedia.org/wiki/%D0%A7%D0%B5%D1%80%D0%B5%D0%BF%D0%BE%D0%B2%D0%B5%D1%86;59.11666667;37.9;Череповец;Вологодская область;Череповец;Вологодская;19730000001;312300;78202;;19.0;0.0;UTC+3
331;https://ru.wikipedia.org/wiki/%D0%92%D0%BE%D0%BB%D0%BE%D0%B3%D0%B4%D0%B0;59.21666667;39.9;Вологда;Вологодская область;Вологда;Вологодская;19701000001;301800;+7 8172;;19.0;0.0;UTC+3
332;https://ru.wikipedia.org/wiki/%D0%A1%D0%BE%D0%BA%D0%BE%D0%BB_(%D0%B3%D0%BE%D1%80%D0%BE%D0%B4);59.46666667;40.11666667;Сокол;Вологодская область;Сокол;Вологодская;19638101001;38500;781733;;19.0;0.0;UTC+3
333;https://ru.wikipedia.org/wiki/%D0%92%D0%B5%D0%BB%D0%B8%D0%BA%D0%B8%D0%B9_%D0%A3%D1%81%D1%82%D1%8E%D0%B3;60.75888889;46.30388889;Великий Устюг;Вологодская область;Великий Устюг;Вологодская;19614101001;31700;781738;;19.0;0.0;UTC+3
334;https://ru.wikipedia.org/wiki/%D0%A8%D0%B5%D0%BA%D1%81%D0%BD%D0%B0_(%D0%A8%D0%B5%D0%BA%D1%81%D0%BD%D0%B8%D0%BD%D1%81%D0%BA%D0%B8%D0%B9_%D1%80%D0%B0%D0%B9%D0%BE%D0%BD);59.21861111;38.51027778;Шексна;Вологодская область;Шексна;Вологодская;19658151051;21000;781751;;19.0;0.0;UTC+3
335;https://ru.wikipedia.org/wiki/%D0%93%D1%80%D1%8F%D0%B7%D0%BE%D0%B2%D0%B5%D1%86;58.88333333;40.25;Грязовец;Вологодская область;Грязовец;Вологодская;19624101001;15500;781755;162000;19.0;0.0;UTC+3
336;https://ru.wikipedia.org/wiki/%D0%91%D0%B0%D0%B1%D0%B0%D0%B5%D0%B2%D0%BE;59.38333333;35.95;Бабаево;Вологодская область;Бабаево;Вологодская;19605101001;12100;781743;;19.0;0.0;UTC+3
337;https://ru.wikipedia.org/wiki/%D0%9A%D0%B0%D0%B4%D1%83%D0%B9_(%D1%80%D0%B0%D0%B1%D0%BE%D1%87%D0%B8%D0%B9_%D0%BF%D0%BE%D1%81%D1%91%D0%BB%D0%BE%D0%BA);59.2;37.15;Кадуй;Вологодская область;Кадуй;Вологодская;19626151051;11300;781742;;19.0;0.0;UTC+3
338;https://ru.wikipedia.org/wiki/%D0%92%D1%8B%D1%82%D0%B5%D0%B3%D1%80%D0%B0;61.0;36.45;Вытегра;Вологодская область;Вытегра;Вологодская;19622101001;10500;781746;162900;19.0;0.0;UTC+3
339;https://ru.wikipedia.org/wiki/%D0%A5%D0%B0%D1%80%D0%BE%D0%B2%D1%81%D0%BA;59.95;40.2;Харовск;Вологодская область;Харовск;Вологодская;19652101001;10100;781732;;19.0;0.0;UTC+3
340;https://ru.wikipedia.org/wiki/%D0%A2%D0%BE%D1%82%D1%8C%D0%BC%D0%B0;59.98333333;42.76666667;Тотьма;Вологодская область;Тотьма;Вологодская;19646101001;9800;781739;161300;19.0;0.0;UTC+3
341;https://ru.wikipedia.org/wiki/%D0%91%D0%B5%D0%BB%D0%BE%D0%B7%D0%B5%D1%80%D1%81%D0%BA;60.03333333;37.78333333;Белозерск;Вологодская область;Белозерск;Вологодская;19610101001;9600;781756;161200;19.0;0.0;UTC+3
342;https://ru.wikipedia.org/wiki/%D0%A3%D1%81%D1%82%D1%8E%D0%B6%D0%BD%D0%B0;58.83333333;36.43333333;Устюжна;Вологодская область;Устюжна;Вологодская;19650101001;9500;781737;162840;19.0;0.0;UTC+3
343;https://ru.wikipedia.org/wiki/%D0%9D%D0%B8%D0%BA%D0%BE%D0%BB%D1%8C%D1%81%D0%BA_(%D0%92%D0%BE%D0%BB%D0%BE%D0%B3%D0%BE%D0%B4%D1%81%D0%BA%D0%B0%D1%8F_%D0%BE%D0%B1%D0%BB%D0%B0%D1%81%D1%82%D1%8C);59.53333333;45.45;Никольск;Вологодская область;Никольск;Вологодская;19634101001;8500;781754;161440–161441;19.0;0.0;UTC+3
344;https://ru.wikipedia.org/wiki/%D0%9A%D0%B8%D1%80%D0%B8%D0%BB%D0%BB%D0%BE%D0%B2_(%D0%B3%D0%BE%D1%80%D0%BE%D0%B4);59.86666667;38.38333333;Кириллов;Вологодская область;Кириллов;Вологодская;19628101001;7700;781757;;19.0;0.0;UTC+3
345;https://ru.wikipedia.org/wiki/%D0%9C%D0%BE%D0%BB%D0%BE%D1%87%D0%BD%D0%BE%D0%B5_(%D0%92%D0%BE%D0%BB%D0%BE%D0%B3%D0%BE%D0%B4%D1%81%D0%BA%D0%B0%D1%8F_%D0%BE%D0%B1%D0%BB%D0%B0%D1%81%D1%82%D1%8C);59.29138889;39.66833333;Молочное;Вологодская область;Молочное;Вологодская;19701000106;7500;78172;160555;19.0;0.0;UTC+3
346;https://ru.wikipedia.org/wiki/%D0%9A%D1%80%D0%B0%D1%81%D0%B0%D0%B2%D0%B8%D0%BD%D0%BE;60.96666667;46.48333333;Красавино;Вологодская область;Красавино;Вологодская;19614105001;7000;781738;162341;19.0;0.0;UTC+3
347;https://ru.wikipedia.org/wiki/%D0%A7%D0%B0%D0%B3%D0%BE%D0%B4%D0%B0;59.16666667;35.33333333;Чагода;Вологодская область;Чагода;Вологодская;19654151051;6900;781741;162400;19.0;0.0;UTC+3
348;https://ru.wikipedia.org/wiki/%D0%92%D0%BE%D0%B6%D0%B5%D0%B3%D0%B0;60.46666667;40.2;Вожега;Вологодская область;Вожега;Вологодская;19618151051;6700;781744;162160;19.0;0.0;UTC+3
349;https://ru.wikipedia.org/wiki/%D0%9A%D0%B8%D1%87%D0%BC%D0%B5%D0%BD%D0%B3%D1%81%D0%BA%D0%B8%D0%B9_%D0%93%D0%BE%D1%80%D0%BE%D0%B4%D0%BE%D0%BA;59.99083333;45.81472222;Кичменгский Городок;Вологодская область;Кичменгский Городок;Вологодская;19630408101;6400;781740;161400, 161401;19.0;0.0;UTC+3
350;https://ru.wikipedia.org/wiki/%D0%92%D0%BE%D1%85%D1%82%D0%BE%D0%B3%D0%B0;58.8;41.03333333;Вохтога;Вологодская область;Вохтога;Вологодская;19624160051;6400;;162040;19.0;0.0;UTC+3
351;https://ru.wikipedia.org/wiki/%D0%A1%D1%83%D0%B4%D0%B0_(%D0%BF%D0%BE%D1%81%D1%91%D0%BB%D0%BE%D0%BA);59.15555556;37.55555556;Суда;Вологодская область;Суда;Вологодская;19656473101;5900;78202;162700;19.0;0.0;UTC+3
352;https://ru.wikipedia.org/wiki/%D0%A2%D0%B0%D1%80%D0%BD%D0%BE%D0%B3%D1%81%D0%BA%D0%B8%D0%B9_%D0%93%D0%BE%D1%80%D0%BE%D0%B4%D0%BE%D0%BA;60.5;43.55;Тарногский Городок;Вологодская область;Тарногский Городок;Вологодская;19642442101;5400;781748;161560;19.0;0.0;UTC+3
353;https://ru.wikipedia.org/wiki/%D0%A4%D0%B5%D0%B4%D0%BE%D1%82%D0%BE%D0%B2%D0%BE_(%D0%A4%D0%B5%D0%B4%D0%BE%D1%82%D0%BE%D0%B2%D1%81%D0%BA%D0%BE%D0%B5_%D1%81%D0%B5%D0%BB%D1%8C%D1%81%D0%BA%D0%BE%D0%B5_%D0%BF%D0%BE%D1%81%D0%B5%D0%BB%D0%B5%D0%BD%D0%B8%D0%B5);59.19722222;39.165;Федотово;Вологодская область;Федотово;Вологодская;19620494101;5300;;160553;19.0;0.0;UTC+3
354;https://ru.wikipedia.org/wiki/%D0%92%D0%B5%D1%80%D1%85%D0%BE%D0%B2%D0%B0%D0%B6%D1%8C%D0%B5;60.73333333;42.05;Верховажье;Вологодская область;Верховажье;Вологодская;19616404101;5000;781759;;19.0;0.0;UTC+3
355;https://ru.wikipedia.org/wiki/%D0%92%D0%BE%D1%80%D0%BE%D0%BD%D0%B5%D0%B6;51.67166667;39.21055556;Воронеж;Воронежская область;Воронеж;Воронежская;20701000001;1039801;7473;;20.0;0.0;UTC+3
356;https://ru.wikipedia.org/wiki/%D0%A0%D0%BE%D1%81%D1%81%D0%BE%D1%88%D1%8C;50.2;39.58333333;Россошь;Воронежская область;Россошь;Воронежская;20647101001;62884;747396;396650;20.0;0.0;UTC+3
357;https://ru.wikipedia.org/wiki/%D0%91%D0%BE%D1%80%D0%B8%D1%81%D0%BE%D0%B3%D0%BB%D0%B5%D0%B1%D1%81%D0%BA;51.36666667;42.08333333;Борисоглебск;Воронежская область;Борисоглебск;Воронежская;20710000001;62669;747354;397160-397172;20.0;0.0;UTC+3
358;https://ru.wikipedia.org/wiki/%D0%9B%D0%B8%D1%81%D0%BA%D0%B8;50.98222222;39.49944444;Лиски;Воронежская область;Лиски;Воронежская;20621101001;54184;747391;397900;20.0;0.0;UTC+3
359;https://ru.wikipedia.org/wiki/%D0%9E%D1%81%D1%82%D1%80%D0%BE%D0%B3%D0%BE%D0%B6%D1%81%D0%BA;50.86666667;39.06666667;Острогожск;Воронежская область;Острогожск;Воронежская;20631101001;32714;747375;;20.0;0.0;UTC+3
360;https://ru.wikipedia.org/wiki/%D0%9D%D0%BE%D0%B2%D0%BE%D0%B2%D0%BE%D1%80%D0%BE%D0%BD%D0%B5%D0%B6;51.31666667;39.21666667;Нововоронеж;Воронежская область;Нововоронеж;Воронежская;20727000001;31607;747364;;20.0;0.0;UTC+3
361;https://ru.wikipedia.org/wiki/%D0%9D%D0%BE%D0%B2%D0%B0%D1%8F_%D0%A3%D1%81%D0%BC%D0%B0%D0%BD%D1%8C;51.64388889;39.41027778;Новая Усмань;Воронежская область;Новая Усмань;Воронежская;20625491101;29270;747341;396310;20.0;0.0;UTC+3
362;https://ru.wikipedia.org/wiki/%D0%A1%D0%B5%D0%BC%D0%B8%D0%BB%D1%83%D0%BA%D0%B8;51.68333333;39.03333333;Семилуки;Воронежская область;Семилуки;Воронежская;20649101001;26797;747372;396900–396902;20.0;0.0;UTC+3
363;https://ru.wikipedia.org/wiki/%D0%9F%D0%B0%D0%B2%D0%BB%D0%BE%D0%B2%D1%81%D0%BA_(%D0%92%D0%BE%D1%80%D0%BE%D0%BD%D0%B5%D0%B6%D1%81%D0%BA%D0%B0%D1%8F_%D0%BE%D0%B1%D0%BB%D0%B0%D1%81%D1%82%D1%8C);50.45;40.06666667;Павловск;Воронежская область;Павловск;Воронежская;20633101001;25047;747362;396420-396422, 396424;20.0;0.0;UTC+3
364;https://ru.wikipedia.org/wiki/%D0%91%D1%83%D1%82%D1%83%D1%80%D0%BB%D0%B8%D0%BD%D0%BE%D0%B2%D0%BA%D0%B0;50.825;40.58888889;Бутурлиновка;Воронежская область;Бутурлиновка;Воронежская;20608101001;24670;747361;397500–397507;20.0;0.0;UTC+3
365;https://ru.wikipedia.org/wiki/%D0%91%D0%BE%D0%B1%D1%80%D0%BE%D0%B2_(%D0%B3%D0%BE%D1%80%D0%BE%D0%B4);51.09444444;40.03222222;Бобров;Воронежская область;Бобров;Воронежская;20604101001;20605;747350;;20.0;0.0;UTC+3
366;https://ru.wikipedia.org/wiki/%D0%9A%D0%B0%D0%BB%D0%B0%D1%87_(%D0%B3%D0%BE%D1%80%D0%BE%D0%B4);50.42583333;41.01555556;Калач;Воронежская область;Калач;Воронежская;20615101001;19035;+7 47363;397600;20.0;0.0;UTC+3
367;https://ru.wikipedia.org/wiki/%D0%9F%D0%BE%D0%B2%D0%BE%D1%80%D0%B8%D0%BD%D0%BE;51.2;42.25;Поворино;Воронежская область;Поворино;Воронежская;20639101001;17095;747376;;20.0;0.0;UTC+3
368;https://ru.wikipedia.org/wiki/%D0%90%D0%BD%D0%BD%D0%B0_(%D0%92%D0%BE%D1%80%D0%BE%D0%BD%D0%B5%D0%B6%D1%81%D0%BA%D0%B0%D1%8F_%D0%BE%D0%B1%D0%BB%D0%B0%D1%81%D1%82%D1%8C);51.48333333;40.41666667;Анна;Воронежская область;Анна;Воронежская;20602151051;16438;747346;;20.0;0.0;UTC+3
369;https://ru.wikipedia.org/wiki/%D0%93%D1%80%D0%B8%D0%B1%D0%B0%D0%BD%D0%BE%D0%B2%D1%81%D0%BA%D0%B8%D0%B9_(%D0%BF%D0%BE%D1%81%D1%91%D0%BB%D0%BE%D0%BA_%D0%B3%D0%BE%D1%80%D0%BE%D0%B4%D1%81%D0%BA%D0%BE%D0%B3%D0%BE_%D1%82%D0%B8%D0%BF%D0%B0);51.45;41.96666667;Грибановский;Воронежская область;Грибановский;Воронежская;20613151051;15040;747348;;20.0;0.0;UTC+3
370;https://ru.wikipedia.org/wiki/%D0%A2%D0%B0%D0%BB%D0%BE%D0%B2%D0%B0%D1%8F_(%D0%A2%D0%B0%D0%BB%D0%BE%D0%B2%D1%81%D0%BA%D0%B8%D0%B9_%D1%80%D0%B0%D0%B9%D0%BE%D0%BD);51.11666667;40.71666667;Таловая;Воронежская область;Таловая;Воронежская;20651151051;11485;747352;;20.0;0.0;UTC+3
371;https://ru.wikipedia.org/wiki/%D0%91%D0%BE%D0%B3%D1%83%D1%87%D0%B0%D1%80;49.93333333;40.55;Богучар;Воронежская область;Богучар;Воронежская;20605101001;11295;747366;;20.0;0.0;UTC+3
372;https://ru.wikipedia.org/wiki/%D0%9A%D0%B0%D0%BD%D1%82%D0%B5%D0%BC%D0%B8%D1%80%D0%BE%D0%B2%D0%BA%D0%B0;49.70166667;39.85361111;Кантемировка;Воронежская область;Кантемировка;Воронежская;20619151051;11060;747367;396730;20.0;0.0;UTC+3
373;https://ru.wikipedia.org/wiki/%D0%AD%D1%80%D1%82%D0%B8%D0%BB%D1%8C;51.83333333;40.8;Эртиль;Воронежская область;Эртиль;Воронежская;20658101001;10410;747345;397030;20.0;0.0;UTC+3
374;https://ru.wikipedia.org/wiki/%D0%9D%D0%B8%D0%B6%D0%BD%D0%B8%D0%B9_%D0%9D%D0%BE%D0%B2%D0%B3%D0%BE%D1%80%D0%BE%D0%B4;56.32694444;44.0075;Нижний Новгород;Нижегородская область;Нижний Новгород;Нижегородская;22701000001;1264075;7831;;22.0;0.0;UTC+3
375;https://ru.wikipedia.org/wiki/%D0%94%D0%B7%D0%B5%D1%80%D0%B6%D0%B8%D0%BD%D1%81%D0%BA_(%D0%9D%D0%B8%D0%B6%D0%B5%D0%B3%D0%BE%D1%80%D0%BE%D0%B4%D1%81%D0%BA%D0%B0%D1%8F_%D0%BE%D0%B1%D0%BB%D0%B0%D1%81%D1%82%D1%8C);56.23333333;43.45;Дзержинск;Нижегородская область;Дзержинск;Нижегородская;22721000001;231797;78313;606000 — 606039;22.0;0.0;UTC+3
376;https://ru.wikipedia.org/wiki/%D0%90%D1%80%D0%B7%D0%B0%D0%BC%D0%B0%D1%81;55.38333333;43.8;Арзамас;Нижегородская область;Арзамас;Нижегородская;22703000001;104547;783147;;22.0;0.0;UTC+3
377;https://ru.wikipedia.org/wiki/%D0%A1%D0%B0%D1%80%D0%BE%D0%B2;54.93333333;43.31666667;Саров;Нижегородская область;Саров;Нижегородская;22704000001;95065;783130;;22.0;0.0;UTC+3
378;https://ru.wikipedia.org/wiki/%D0%91%D0%BE%D1%80_(%D0%9D%D0%B8%D0%B6%D0%B5%D0%B3%D0%BE%D1%80%D0%BE%D0%B4%D1%81%D0%BA%D0%B0%D1%8F_%D0%BE%D0%B1%D0%BB%D0%B0%D1%81%D1%82%D1%8C);56.36027778;44.05916667;Бор;Нижегородская область;Бор;Нижегородская;22712000001;78385;783159;606440;22.0;0.0;UTC+3
379;https://ru.wikipedia.org/wiki/%D0%9A%D1%81%D1%82%D0%BE%D0%B2%D0%BE;56.15166667;44.19555556;Кстово;Нижегородская область;Кстово;Нижегородская;22637101001;67723;783145;607650;22.0;0.0;UTC+3
380;https://ru.wikipedia.org/wiki/%D0%9F%D0%B0%D0%B2%D0%BB%D0%BE%D0%B2%D0%BE;55.96194444;43.09;Павлово;Нижегородская область;Павлово;Нижегородская;22642101001;58163;783171;;22.0;0.0;UTC+3
381;https://ru.wikipedia.org/wiki/%D0%92%D1%8B%D0%BA%D1%81%D0%B0;55.31944444;42.17305556;Выкса;Нижегородская область;Выкса;Нижегородская;22715000001;53406;783177;607060 — 607061;22.0;0.0;UTC+3
382;https://ru.wikipedia.org/wiki/%D0%91%D0%B0%D0%BB%D0%B0%D1%85%D0%BD%D0%B0;56.48083333;43.54027778;Балахна;Нижегородская область;Балахна;Нижегородская;22605101001;49364;783144;;22.0;0.0;UTC+3
383;https://ru.wikipedia.org/wiki/%D0%97%D0%B0%D0%B2%D0%BE%D0%BB%D0%B6%D1%8C%D0%B5_(%D0%B3%D0%BE%D1%80%D0%BE%D0%B4);56.6425;43.39277778;Заволжье;Нижегородская область;Заволжье;Нижегородская;22628103001;38527;783161;606520;22.0;0.0;UTC+3
384;https://ru.wikipedia.org/wiki/%D0%91%D0%BE%D0%B3%D0%BE%D1%80%D0%BE%D0%B4%D1%81%D0%BA;56.09972222;43.50722222;Богородск;Нижегородская область;Богородск;Нижегородская;22607101001;34388;783170;607600;22.0;0.0;UTC+3
385;https://ru.wikipedia.org/wiki/%D0%9A%D1%83%D0%BB%D0%B5%D0%B1%D0%B0%D0%BA%D0%B8;55.41666667;42.51666667;Кулебаки;Нижегородская область;Кулебаки;Нижегородская;22727000001;32943;783176;607010;22.0;0.0;UTC+3
386;https://ru.wikipedia.org/wiki/%D0%93%D0%BE%D1%80%D0%BE%D0%B4%D0%B5%D1%86;56.65027778;43.47027778;Городец;Нижегородская область;Городец;Нижегородская;22628101001;30493;783161;606500;22.0;0.0;UTC+3
387;https://ru.wikipedia.org/wiki/%D0%A1%D0%B5%D0%BC%D1%91%D0%BD%D0%BE%D0%B2_(%D0%B3%D0%BE%D1%80%D0%BE%D0%B4);56.8;44.5;Семёнов;Нижегородская область;Семенов;Нижегородская;22737000001;24536;783162;606650;22.0;0.0;UTC+3
388;https://ru.wikipedia.org/wiki/%D0%9B%D1%8B%D1%81%D0%BA%D0%BE%D0%B2%D0%BE;56.01277778;45.02527778;Лысково;Нижегородская область;Лысково;Нижегородская;22640101001;21293;783149;606210;22.0;0.0;UTC+3
389;https://ru.wikipedia.org/wiki/%D0%A1%D0%B5%D1%80%D0%B3%D0%B0%D1%87;55.53333333;45.46666667;Сергач;Нижегородская область;Сергач;Нижегородская;22648101001;20416;783191;607510;22.0;0.0;UTC+3
390;https://ru.wikipedia.org/wiki/%D0%A8%D0%B0%D1%85%D1%83%D0%BD%D1%8C%D1%8F;57.67472222;46.62083333;Шахунья;Нижегородская область;Шахунья;Нижегородская;22758000001;20183;+7 83152[4];606910;22.0;0.0;UTC+3
391;https://ru.wikipedia.org/wiki/%D0%9D%D0%B0%D0%B2%D0%B0%D1%88%D0%B8%D0%BD%D0%BE;55.53333333;42.2;Навашино;Нижегородская область;Навашино;Нижегородская;22730000001;15051;783175;;22.0;0.0;UTC+3
392;https://ru.wikipedia.org/wiki/%D0%9B%D1%83%D0%BA%D0%BE%D1%8F%D0%BD%D0%BE%D0%B2;55.03833333;44.49777778;Лукоянов;Нижегородская область;Лукоянов;Нижегородская;22639101001;14136;783196;607800, 607802;22.0;0.0;UTC+3
393;https://ru.wikipedia.org/wiki/%D0%9F%D0%B5%D1%80%D0%B2%D0%BE%D0%BC%D0%B0%D0%B9%D1%81%D0%BA_(%D0%9D%D0%B8%D0%B6%D0%B5%D0%B3%D0%BE%D1%80%D0%BE%D0%B4%D1%81%D0%BA%D0%B0%D1%8F_%D0%BE%D0%B1%D0%BB%D0%B0%D1%81%D1%82%D1%8C);54.86666667;43.8;Первомайск;Нижегородская область;Первомайск;Нижегородская;22734000001;13626;783139;;22.0;0.0;UTC+3
394;https://ru.wikipedia.org/wiki/%D0%A3%D1%80%D0%B5%D0%BD%D1%8C;57.46666667;45.78333333;Урень;Нижегородская область;Урень;Нижегородская;22654101001;12385;783154;606800;22.0;0.0;UTC+3
395;https://ru.wikipedia.org/wiki/%D0%A7%D0%BA%D0%B0%D0%BB%D0%BE%D0%B2%D1%81%D0%BA_(%D0%9D%D0%B8%D0%B6%D0%B5%D0%B3%D0%BE%D1%80%D0%BE%D0%B4%D1%81%D0%BA%D0%B0%D1%8F_%D0%BE%D0%B1%D0%BB%D0%B0%D1%81%D1%82%D1%8C);56.76666667;43.25;Чкаловск;Нижегородская область;Чкаловск;Нижегородская;22755000001;11569;783160;606540;22.0;0.0;UTC+3
396;https://ru.wikipedia.org/wiki/%D0%92%D0%BE%D1%80%D1%81%D0%BC%D0%B0;55.98333333;43.26666667;Ворсма;Нижегородская область;Ворсма;Нижегородская;22642103001;10589;783171;;22.0;0.0;UTC+3
397;https://ru.wikipedia.org/wiki/%D0%92%D0%BE%D0%BB%D0%BE%D0%B4%D0%B0%D1%80%D1%81%D0%BA;56.23333333;43.2;Володарск;Нижегородская область;Володарск;Нижегородская;22631103001;10021;783136;606072;22.0;0.0;UTC+3
398;https://ru.wikipedia.org/wiki/%D0%A8%D0%B0%D1%82%D0%BA%D0%B8;55.18333333;44.15;Шатки;Нижегородская область;Шатки;Нижегородская;22657151051;8796;783190;607700;22.0;0.0;UTC+3
399;https://ru.wikipedia.org/wiki/%D0%98%D0%B2%D0%B0%D0%BD%D0%BE%D0%B2%D0%BE;56.995;40.98027778;Иваново;Ивановская область;Иваново;Ивановская;24701000001;406933;74932;153000;24.0;0.0;UTC+3
400;https://ru.wikipedia.org/wiki/%D0%9A%D0%B8%D0%BD%D0%B5%D1%88%D0%BC%D0%B0;57.45;42.15;Кинешма;Ивановская область;Кинешма;Ивановская;24705000001;83871;749331;155800 - 155819;24.0;0.0;UTC+3
401;https://ru.wikipedia.org/wiki/%D0%A8%D1%83%D1%8F;56.85;41.36666667;Шуя;Ивановская область;Шуя;Ивановская;24711000001;58723;749351;155900—155906, 155908, 155912;24.0;0.0;UTC+3
402;https://ru.wikipedia.org/wiki/%D0%92%D0%B8%D1%87%D1%83%D0%B3%D0%B0;57.2;41.91666667;Вичуга;Ивановская область;Вичуга;Ивановская;24703000001;34868;749354;1553xx;24.0;0.0;UTC+3
403;https://ru.wikipedia.org/wiki/%D0%A4%D1%83%D1%80%D0%BC%D0%B0%D0%BD%D0%BE%D0%B2_(%D0%B3%D0%BE%D1%80%D0%BE%D0%B4);57.25;41.1;Фурманов;Ивановская область;Фурманов;Ивановская;24631101001;34309;749341;155520;24.0;0.0;UTC+3
404;https://ru.wikipedia.org/wiki/%D0%A2%D0%B5%D0%B9%D0%BA%D0%BE%D0%B2%D0%BE;56.85;40.55;Тейково;Ивановская область;Тейково;Ивановская;24707000001;32791;749343;155040 - 155047;24.0;0.0;UTC+3
405;https://ru.wikipedia.org/wiki/%D0%9A%D0%BE%D1%85%D0%BC%D0%B0;56.93333333;41.08333333;Кохма;Ивановская область;Кохма;Ивановская;24706000001;30316;74932;153510, 153511, 153512;24.0;0.0;UTC+3
406;https://ru.wikipedia.org/wiki/%D0%A0%D0%BE%D0%B4%D0%BD%D0%B8%D0%BA%D0%B8_(%D0%B3%D0%BE%D1%80%D0%BE%D0%B4);57.1;41.73333333;Родники;Ивановская область;Родники;Ивановская;24623101001;24662;749336;155250;24.0;0.0;UTC+3
407;https://ru.wikipedia.org/wiki/%D0%9F%D1%80%D0%B8%D0%B2%D0%BE%D0%BB%D0%B6%D1%81%D0%BA;57.38333333;41.28333333;Приволжск;Ивановская область;Приволжск;Ивановская;24620106001;15824;749339;155550;24.0;0.0;UTC+3
408;https://ru.wikipedia.org/wiki/%D0%AE%D0%B6%D0%B0;56.58333333;42.01666667;Южа;Ивановская область;Южа;Ивановская;24635101001;12834;749347;155630;24.0;0.0;UTC+3
409;https://ru.wikipedia.org/wiki/%D0%97%D0%B0%D0%B2%D0%BE%D0%BB%D0%B6%D1%81%D0%BA;57.48333333;42.13333333;Заволжск;Ивановская область;Заволжск;Ивановская;24605101001;10384;749333;155410;24.0;0.0;UTC+3
410;https://ru.wikipedia.org/wiki/%D0%9D%D0%B0%D0%B2%D0%BE%D0%BB%D0%BE%D0%BA%D0%B8;57.46666667;41.96666667;Наволоки;Ивановская область;Наволоки;Ивановская;24611104001;9546;749331;155830;24.0;0.0;UTC+3
411;https://ru.wikipedia.org/wiki/%D0%9D%D0%BE%D0%B2%D0%BE-%D0%A2%D0%B0%D0%BB%D0%B8%D1%86%D1%8B;57.00472222;40.86138889;Ново-Талицы;Ивановская область;Ново-Талицы;Ивановская;24607448101;8563;;;24.0;0.0;UTC+3
412;https://ru.wikipedia.org/wiki/%D0%AE%D1%80%D1%8C%D0%B5%D0%B2%D0%B5%D1%86;57.31666667;43.1;Юрьевец;Ивановская область;Юрьевец;Ивановская;24637101001;8378;749337;155453;24.0;0.0;UTC+3
413;https://ru.wikipedia.org/wiki/%D0%9A%D0%BE%D0%BC%D1%81%D0%BE%D0%BC%D0%BE%D0%BB%D1%8C%D1%81%D0%BA_(%D0%98%D0%B2%D0%B0%D0%BD%D0%BE%D0%B2%D1%81%D0%BA%D0%B0%D1%8F_%D0%BE%D0%B1%D0%BB%D0%B0%D1%81%D1%82%D1%8C);57.03333333;40.38333333;Комсомольск;Ивановская область;Комсомольск;Ивановская;24613101001;8366;749352;155150;24.0;0.0;UTC+3
414;https://ru.wikipedia.org/wiki/%D0%9B%D0%B5%D0%B6%D0%BD%D0%B5%D0%B2%D0%BE_(%D0%98%D0%B2%D0%B0%D0%BD%D0%BE%D0%B2%D1%81%D0%BA%D0%B0%D1%8F_%D0%BE%D0%B1%D0%BB%D0%B0%D1%81%D1%82%D1%8C);56.76666667;40.88333333;Лежнево;Ивановская область;Лежнево;Ивановская;24614151051;7837;749357;155120;24.0;0.0;UTC+3
415;https://ru.wikipedia.org/wiki/%D0%9F%D1%83%D1%87%D0%B5%D0%B6;56.98333333;43.16666667;Пучеж;Ивановская область;Пучеж;Ивановская;24621101001;7078;749345;155360;24.0;0.0;UTC+3
416;https://ru.wikipedia.org/wiki/%D0%93%D0%B0%D0%B2%D1%80%D0%B8%D0%BB%D0%BE%D0%B2_%D0%9F%D0%BE%D1%81%D0%B0%D0%B4;56.56666667;40.11666667;Гаврилов Посад;Ивановская область;Гаврилов Посад;Ивановская;24603101001;5715;749355;;24.0;0.0;UTC+3
417;https://ru.wikipedia.org/wiki/%D0%A2%D0%B0%D0%BB%D0%B8%D1%86%D1%8B_(%D0%98%D0%B2%D0%B0%D0%BD%D0%BE%D0%B2%D1%81%D0%BA%D0%B0%D1%8F_%D0%BE%D0%B1%D0%BB%D0%B0%D1%81%D1%82%D1%8C);56.52666667;42.33138889;Талицы;Ивановская область;Талицы;Ивановская;24635420101;5677;749347;155644;24.0;0.0;UTC+3
418;https://ru.wikipedia.org/wiki/%D0%A1%D0%B0%D0%B2%D0%B8%D0%BD%D0%BE_(%D1%80%D0%B0%D0%B1%D0%BE%D1%87%D0%B8%D0%B9_%D0%BF%D0%BE%D1%81%D1%91%D0%BB%D0%BE%D0%BA,_%D0%A1%D0%B0%D0%B2%D0%B8%D0%BD%D1%81%D0%BA%D0%B8%D0%B9_%D1%80%D0%B0%D0%B9%D0%BE%D0%BD);56.59055556;41.21305556;Савино;Ивановская область;Савино;Ивановская;24625151051;5050;749356;;24.0;0.0;UTC+3
419;https://ru.wikipedia.org/wiki/%D0%A1%D1%82%D0%B0%D1%80%D0%B0%D1%8F_%D0%92%D0%B8%D1%87%D1%83%D0%B3%D0%B0;57.26666667;41.86666667;Старая Вичуга;Ивановская область;Старая Вичуга;Ивановская;24601160051;4811;78493;155310;24.0;0.0;UTC+3
